{"pizza+Ann Arbor": {"businesses": [{"id": "JXcDdqg4RZhSyr4ojCyY5A", "alias": "neopapalis-ann-arbor", "name": "NeoPapalis", "image_url": "https://s3-media3.fl.yelpcdn.com/bphoto/bl7OFlpbQhbs1dDzpRoVBw/o.jpg", "is_closed": false, "url": "https://www.yelp.com/biz/neopapalis-ann-arbor?adjust_creative=ziguwByJV8X440VdHu1QZw&utm_campaign=yelp_api_v3&utm_medium=api_v3_business_search&utm_source=ziguwByJV8X440VdHu1QZw", "review_count": 277, "categories": [{"alias": "salad", "title": "Salad"}, {"alias": "pizza", "title": "Pizza"}, {"alias": "sandwiches", "title": "Sandwiches"}], "rating": 4.5, "coordinates": {"latitude": 42.2775307, "longitude": -83.7428818}, "transactions": [], "price": "$", "location": {"address1": "500 E William St", "address2": "", "address3": "", "city": "Ann Arbor", "zip_code": "48104", "country": "US", "state": "MI", "display_address": ["500 E William St", "Ann Arbor, MI 48104"]}, "phone": "+17349292227", "display_phone": "(734) 929-2227", "distance": 161.67413393236117}, {"id": "-h_zeuiMCWWkSIAyhw25EA", "alias": "anthonys-gourmet-pizza-ann-arbor-3", "name": "Anthony's Gourmet Pizza", "image_url": "https://s3-media2.fl.yelpcdn.com/bphoto/4rLdd_JMJy2VnX-P5k_hzw/o.jpg", "is_closed": false, "url": "https://www.yelp.com/biz/anthonys-gourmet-pizza-ann-arbor-3?adjust_creative=ziguwByJV8X440VdHu1QZw&utm_campaign=yelp_api_v3&utm_medium=api_v3_business_search&utm_source=ziguwByJV8X440VdHu1QZw", "review_count": 67, "categories": [{"alias": "pizza", "title": "Pizza"}], "rating": 4.5, "coordinates": {"latitude": 42.29563, "longitude": -83.780918}, "transactions": [], "price": "$$", "location": {"address1": "1508 N Maple Rd", "address2": "", "address3": "", "city": "Ann Arbor", "zip_code": "48103", "country": "US", "state": "MI", "display_address": ["1508 N Maple Rd", "Ann Arbor, MI 48103"]}, "phone": "+17342132500", "display_phone": "(734) 213-2500", "distance": 3881.4911232312156}, {"id": "4REtzXpQYy8dVev8RjWbSQ", "alias": "mani-osteria-and-bar-ann-arbor", "name": "Mani Osteria & Bar", "image_url": "https://s3-media4.fl.yelpcdn.com/bphoto/zYg5nioGj27b6mHsXfyM0Q/o.jpg", "is_closed": false, "url": "https://www.yelp.com/biz/mani-osteria-and-bar-ann-arbor?adjust_creative=ziguwByJV8X440VdHu1QZw&utm_campaign=yelp_api_v3&utm_medium=api_v3_business_search&utm_source=ziguwByJV8X440VdHu1QZw", "review_count": 681, "categories": [{"alias": "italian", "title": "Italian"}, {"alias": "pizza", "title": "Pizza"}, {"alias": "cocktailbars", "title": "Cocktail Bars"}], "rating": 4.0, "coordinates": {"latitude": 42.2795793749763, "longitude": -83.744244702611}, "transactions": [], "price": "$$", "location": {"address1": "341 E Liberty St", "address2": "", "address3": "", "city": "Ann Arbor", "zip_code": "48104", "country": "US", "state": "MI", "display_address": ["341 E Liberty St", "Ann Arbor, MI 48104"]}, "phone": "+17347696700", "display_phone": "(734) 769-6700", "distance": 400.4088835060728}, {"id": "7sAcXreoQqyLdMnNPcr5hA", "alias": "pizza-house-ann-arbor", "name": "Pizza House", "image_url": "https://s3-media3.fl.yelpcdn.com/bphoto/UpF65MZAjoZRSmPtZ08sGw/o.jpg", "is_closed": false, "url": "https://www.yelp.com/biz/pizza-house-ann-arbor?adjust_creative=ziguwByJV8X440VdHu1QZw&utm_campaign=yelp_api_v3&utm_medium=api_v3_business_search&utm_source=ziguwByJV8X440VdHu1QZw", "review_count": 374, "categories": [{"alias": "pizza", "title": "Pizza"}, {"alias": "bars", "title": "Bars"}, {"alias": "italian", "title": "Italian"}], "rating": 3.5, "coordinates": {"latitude": 42.2743456, "longitude": -83.7347695}, "transactions": ["pickup", "delivery"], "price": "$$", "location": {"address1": "618 Church St", "address2": "", "address3": "", "city": "Ann Arbor", "zip_code": "48104", "country": "US", "state": "MI", "display_address": ["618 Church St", "Ann Arbor, MI 48104"]}, "phone": "+17349955095", "display_phone": "(734) 995-5095", "distance": 594.9422294646928}, {"id": "5yrNbYde_PmHfmNv1fCjDw", "alias": "aamanis-smokehouse-and-pizza-ann-arbor", "name": "Aamani's Smokehouse & Pizza", "image_url": "https://s3-media1.fl.yelpcdn.com/bphoto/MU1DqY9eQgL7d1OK9_MXSQ/o.jpg", "is_closed": false, "url": "https://www.yelp.com/biz/aamanis-smokehouse-and-pizza-ann-arbor?adjust_creative=ziguwByJV8X440VdHu1QZw&utm_campaign=yelp_api_v3&utm_medium=api_v3_business_search&utm_source=ziguwByJV8X440VdHu1QZw", "review_count": 18, "categories": [{"alias": "smokehouse", "title": "Smokehouse"}, {"alias": "pizza", "title": "Pizza"}], "rating": 5.0, "coordinates": {"latitude": 42.2856484, "longitude": -83.7815711}, "transactions": ["pickup", "delivery"], "location": {"address1": "2529 Dexter Ave", "address2": null, "address3": null, "city": "Ann Arbor", "zip_code": "48103", "country": "US", "state": "MI", "display_address": ["2529 Dexter Ave", "Ann Arbor, MI 48103"]}, "phone": "+17342132222", "display_phone": "(734) 213-2222", "distance": 3458.427563003184}, {"id": "KEbV_mwq3hO8ryxhUhJ9Eg", "alias": "new-york-pizza-depot-ann-arbor", "name": "New York Pizza Depot", "image_url": "https://s3-media4.fl.yelpcdn.com/bphoto/wy_hFRvJVfRGWdbwiktnmA/o.jpg", "is_closed": false, "url": "https://www.yelp.com/biz/new-york-pizza-depot-ann-arbor?adjust_creative=ziguwByJV8X440VdHu1QZw&utm_campaign=yelp_api_v3&utm_medium=api_v3_business_search&utm_source=ziguwByJV8X440VdHu1QZw", "review_count": 248, "categories": [{"alias": "pizza", "title": "Pizza"}, {"alias": "italian", "title": "Italian"}], "rating": 3.5, "coordinates": {"latitude": 42.2779624772776, "longitude": -83.7418160105149}, "transactions": ["pickup", "delivery"], "price": "$", "location": {"address1": "605 E William St", "address2": "", "address3": "", "city": "Ann Arbor", "zip_code": "48104", "country": "US", "state": "MI", "display_address": ["605 E William St", "Ann Arbor, MI 48104"]}, "phone": "+17346696973", "display_phone": "(734) 669-6973", "distance": 142.80211487006682}, {"id": "-h9tPzhgDVYbc1dF2dsKQw", "alias": "bigalora-wood-fired-cucina-ann-arbor", "name": "Bigalora Wood Fired Cucina", "image_url": "https://s3-media1.fl.yelpcdn.com/bphoto/m2-aBv8kWK9D7t6zl_UGpg/o.jpg", "is_closed": false, "url": "https://www.yelp.com/biz/bigalora-wood-fired-cucina-ann-arbor?adjust_creative=ziguwByJV8X440VdHu1QZw&utm_campaign=yelp_api_v3&utm_medium=api_v3_business_search&utm_source=ziguwByJV8X440VdHu1QZw", "review_count": 285, "categories": [{"alias": "italian", "title": "Italian"}, {"alias": "pizza", "title": "Pizza"}, {"alias": "gluten_free", "title": "Gluten-Free"}], "rating": 3.5, "coordinates": {"latitude": 42.2573324, "longitude": -83.6992959}, "transactions": [], "price": "$$", "location": {"address1": "3050 Washtenaw Ave", "address2": "Ste 112", "address3": "", "city": "Ann Arbor", "zip_code": "48104", "country": "US", "state": "MI", "display_address": ["3050 Washtenaw Ave", "Ste 112", "Ann Arbor, MI 48104"]}, "phone": "+17349712442", "display_phone": "(734) 971-2442", "distance": 4174.475548512769}, {"id": "yn-wcQm-WFUO3ahLGYfprQ", "alias": "hello-faz-pizza-ann-arbor", "name": "Hello Faz Pizza", "image_url": "https://s3-media1.fl.yelpcdn.com/bphoto/L9IDuUcze0gKG_suJIkk_w/o.jpg", "is_closed": false, "url": "https://www.yelp.com/biz/hello-faz-pizza-ann-arbor?adjust_creative=ziguwByJV8X440VdHu1QZw&utm_campaign=yelp_api_v3&utm_medium=api_v3_business_search&utm_source=ziguwByJV8X440VdHu1QZw", "review_count": 91, "categories": [{"alias": "pizza", "title": "Pizza"}], "rating": 3.5, "coordinates": {"latitude": 42.27371, "longitude": -83.7775}, "transactions": ["pickup", "delivery"], "price": "$", "location": {"address1": "2259 W Liberty St", "address2": "", "address3": "", "city": "Ann Arbor", "zip_code": "48103", "country": "US", "state": "MI", "display_address": ["2259 W Liberty St", "Ann Arbor, MI 48103"]}, "phone": "+17347417777", "display_phone": "(734) 741-7777", "distance": 3016.047484648329}, {"id": "3T0DimQdBFcaqfDzOvnSBg", "alias": "buddys-pizza-ann-arbor-ann-arbor-2", "name": "Buddy's Pizza - Ann Arbor", "image_url": "https://s3-media2.fl.yelpcdn.com/bphoto/gqrDWkzOgdy824lQXKj6_A/o.jpg", "is_closed": false, "url": "https://www.yelp.com/biz/buddys-pizza-ann-arbor-ann-arbor-2?adjust_creative=ziguwByJV8X440VdHu1QZw&utm_campaign=yelp_api_v3&utm_medium=api_v3_business_search&utm_source=ziguwByJV8X440VdHu1QZw", "review_count": 60, "categories": [{"alias": "pizza", "title": "Pizza"}], "rating": 3.5, "coordinates": {"latitude": 42.2407680879754, "longitude": -83.768447405909}, "transactions": [], "price": "$$", "location": {"address1": "3153 Ann Arbor-Saline Rd", "address2": "", "address3": null, "city": "Ann Arbor", "zip_code": "48108", "country": "US", "state": "MI", "display_address": ["3153 Ann Arbor-Saline Rd", "Ann Arbor, MI 48108"]}, "phone": "+17347929130", "display_phone": "(734) 792-9130", "distance": 4585.929338692684}, {"id": "lOX5YgRpxdJGuyYJuAfPfg", "alias": "blaze-fast-fired-pizza-ann-arbor-2", "name": "Blaze Fast Fire'd Pizza", "image_url": "https://s3-media1.fl.yelpcdn.com/bphoto/U8AOWidvxneAcmbZxNd9QA/o.jpg", "is_closed": false, "url": "https://www.yelp.com/biz/blaze-fast-fired-pizza-ann-arbor-2?adjust_creative=ziguwByJV8X440VdHu1QZw&utm_campaign=yelp_api_v3&utm_medium=api_v3_business_search&utm_source=ziguwByJV8X440VdHu1QZw", "review_count": 101, "categories": [{"alias": "salad", "title": "Salad"}, {"alias": "pizza", "title": "Pizza"}, {"alias": "hotdogs", "title": "Fast Food"}], "rating": 3.5, "coordinates": {"latitude": 42.25519, "longitude": -83.69031}, "transactions": [], "price": "$", "location": {"address1": "3500 Washtenaw Ave", "address2": "Ste D", "address3": null, "city": "Ann Arbor", "zip_code": "48104", "country": "US", "state": "MI", "display_address": ["3500 Washtenaw Ave", "Ste D", "Ann Arbor, MI 48104"]}, "phone": "+17349975373", "display_phone": "(734) 997-5373", "distance": 4944.093333464457}, {"id": "lmLvzwceJK_4fI1MayBb4A", "alias": "anthonys-gourmet-pizza-ann-arbor-4", "name": "Anthony's Gourmet Pizza", "image_url": "https://s3-media3.fl.yelpcdn.com/bphoto/tpTebo2TQEtNxsDxbrblcw/o.jpg", "is_closed": false, "url": "https://www.yelp.com/biz/anthonys-gourmet-pizza-ann-arbor-4?adjust_creative=ziguwByJV8X440VdHu1QZw&utm_campaign=yelp_api_v3&utm_medium=api_v3_business_search&utm_source=ziguwByJV8X440VdHu1QZw", "review_count": 25, "categories": [{"alias": "pizza", "title": "Pizza"}, {"alias": "cafes", "title": "Cafes"}], "rating": 4.0, "coordinates": {"latitude": 42.2577972412109, "longitude": -83.7284164428711}, "transactions": [], "price": "$$", "location": {"address1": "1924 Packard St", "address2": "", "address3": null, "city": "Ann Arbor", "zip_code": "48104", "country": "US", "state": "MI", "display_address": ["1924 Packard St", "Ann Arbor, MI 48104"]}, "phone": "+17346622500", "display_phone": "(734) 662-2500", "distance": 2358.008348751616}, {"id": "1BX80nfhUO9rzrmY1iURWA", "alias": "south-u-pizza-ann-arbor", "name": "South U Pizza", "image_url": "https://s3-media1.fl.yelpcdn.com/bphoto/JQHSY48Q7q2g33CUfuuPmQ/o.jpg", "is_closed": false, "url": "https://www.yelp.com/biz/south-u-pizza-ann-arbor?adjust_creative=ziguwByJV8X440VdHu1QZw&utm_campaign=yelp_api_v3&utm_medium=api_v3_business_search&utm_source=ziguwByJV8X440VdHu1QZw", "review_count": 70, "categories": [{"alias": "pizza", "title": "Pizza"}], "rating": 3.5, "coordinates": {"latitude": 42.2748078, "longitude": -83.7353221}, "transactions": ["pickup", "delivery"], "price": "$", "location": {"address1": "1106 S University Ave", "address2": "", "address3": "", "city": "Ann Arbor", "zip_code": "48104", "country": "US", "state": "MI", "display_address": ["1106 S University Ave", "Ann Arbor, MI 48104"]}, "phone": "+17347614500", "display_phone": "(734) 761-4500", "distance": 531.8121561737258}, {"id": "SPCYh2_JYtJkReVJbMp2lA", "alias": "marcos-pizza-ann-arbor-4", "name": "Marco's Pizza", "image_url": "https://s3-media1.fl.yelpcdn.com/bphoto/_7_FNe_Rs8rr5h0KB0ZwUA/o.jpg", "is_closed": false, "url": "https://www.yelp.com/biz/marcos-pizza-ann-arbor-4?adjust_creative=ziguwByJV8X440VdHu1QZw&utm_campaign=yelp_api_v3&utm_medium=api_v3_business_search&utm_source=ziguwByJV8X440VdHu1QZw", "review_count": 18, "categories": [{"alias": "pizza", "title": "Pizza"}], "rating": 4.0, "coordinates": {"latitude": 42.2980592167723, "longitude": -83.7229559873176}, "transactions": [], "price": "$", "location": {"address1": "1752 Plymouth Rd", "address2": "", "address3": "", "city": "Ann Arbor", "zip_code": "48105", "country": "US", "state": "MI", "display_address": ["1752 Plymouth Rd", "Ann Arbor, MI 48105"]}, "phone": "+17349982600", "display_phone": "(734) 998-2600", "distance": 2805.470954302265}, {"id": "9Ej_Kt9dYkBX-FRBVtvjuA", "alias": "marcos-pizza-ann-arbor", "name": "Marcos Pizza", "image_url": "https://s3-media4.fl.yelpcdn.com/bphoto/nSQg3MoA0FGRd27yUINDbw/o.jpg", "is_closed": false, "url": "https://www.yelp.com/biz/marcos-pizza-ann-arbor?adjust_creative=ziguwByJV8X440VdHu1QZw&utm_campaign=yelp_api_v3&utm_medium=api_v3_business_search&utm_source=ziguwByJV8X440VdHu1QZw", "review_count": 23, "categories": [{"alias": "pizza", "title": "Pizza"}], "rating": 4.0, "coordinates": {"latitude": 42.24531, "longitude": -83.678917}, "transactions": [], "price": "$", "location": {"address1": "4068 Packard St", "address2": "", "address3": "", "city": "Ann Arbor", "zip_code": "48108", "country": "US", "state": "MI", "display_address": ["4068 Packard St", "Ann Arbor, MI 48108"]}, "phone": "+17349731750", "display_phone": "(734) 973-1750", "distance": 6206.320615917091}, {"id": "jTPr0dFk2JgGYdDiIGro3Q", "alias": "silvios-ann-arbor", "name": "Silvio's", "image_url": "https://s3-media2.fl.yelpcdn.com/bphoto/KOt1A8uGy5wzUccnBZxdAQ/o.jpg", "is_closed": false, "url": "https://www.yelp.com/biz/silvios-ann-arbor?adjust_creative=ziguwByJV8X440VdHu1QZw&utm_campaign=yelp_api_v3&utm_medium=api_v3_business_search&utm_source=ziguwByJV8X440VdHu1QZw", "review_count": 245, "categories": [{"alias": "pizza", "title": "Pizza"}, {"alias": "italian", "title": "Italian"}, {"alias": "gluten_free", "title": "Gluten-Free"}], "rating": 3.5, "coordinates": {"latitude": 42.27891, "longitude": -83.74001}, "transactions": ["pickup", "delivery"], "price": "$$", "location": {"address1": "715 N University Ave", "address2": "", "address3": "", "city": "Ann Arbor", "zip_code": "48104", "country": "US", "state": "MI", "display_address": ["715 N University Ave", "Ann Arbor, MI 48104"]}, "phone": "+17342146666", "display_phone": "(734) 214-6666", "distance": 254.88123027331898}, {"id": "jCxJCaONQyPbvsYdkqHRbg", "alias": "cottage-inn-pizza-ann-arbor-ann-arbor-4", "name": "Cottage Inn Pizza - Ann Arbor", "image_url": "https://s3-media3.fl.yelpcdn.com/bphoto/dLD9Rpe_CRAME_Us5LY7Cw/o.jpg", "is_closed": false, "url": "https://www.yelp.com/biz/cottage-inn-pizza-ann-arbor-ann-arbor-4?adjust_creative=ziguwByJV8X440VdHu1QZw&utm_campaign=yelp_api_v3&utm_medium=api_v3_business_search&utm_source=ziguwByJV8X440VdHu1QZw", "review_count": 59, "categories": [{"alias": "pizza", "title": "Pizza"}, {"alias": "chicken_wings", "title": "Chicken Wings"}], "rating": 3.0, "coordinates": {"latitude": 42.272, "longitude": -83.74213}, "transactions": ["pickup", "delivery"], "price": "$", "location": {"address1": "546 Packard St", "address2": "", "address3": "", "city": "Ann Arbor", "zip_code": "48104", "country": "US", "state": "MI", "display_address": ["546 Packard St", "Ann Arbor, MI 48104"]}, "phone": "+17347695555", "display_phone": "(734) 769-5555", "distance": 535.4325588119079}, {"id": "pn86ENQj7abUQlOJpLh7nA", "alias": "the-original-buscemis-ann-arbor", "name": "The Original Buscemis", "image_url": "https://s3-media2.fl.yelpcdn.com/bphoto/AAAHixWHU-uILtGhXKGqBw/o.jpg", "is_closed": false, "url": "https://www.yelp.com/biz/the-original-buscemis-ann-arbor?adjust_creative=ziguwByJV8X440VdHu1QZw&utm_campaign=yelp_api_v3&utm_medium=api_v3_business_search&utm_source=ziguwByJV8X440VdHu1QZw", "review_count": 2, "categories": [{"alias": "pizza", "title": "Pizza"}, {"alias": "beer_and_wine", "title": "Beer, Wine & Spirits"}], "rating": 2.5, "coordinates": {"latitude": 42.27393, "longitude": -83.77963}, "transactions": [], "location": {"address1": "695 S Maple Rd", "address2": "", "address3": null, "city": "Ann Arbor", "zip_code": "48103", "country": "US", "state": "MI", "display_address": ["695 S Maple Rd", "Ann Arbor, MI 48103"]}, "phone": "+17347619814", "display_phone": "(734) 761-9814", "distance": 3152.7773171519743}, {"id": "Zdfe_wTw6KGOMOeKRq5WFg", "alias": "the-original-cottage-inn-ann-arbor-2", "name": "The Original Cottage Inn", "image_url": "https://s3-media2.fl.yelpcdn.com/bphoto/O6PUPh4UZO3sUI08Pgsj7Q/o.jpg", "is_closed": false, "url": "https://www.yelp.com/biz/the-original-cottage-inn-ann-arbor-2?adjust_creative=ziguwByJV8X440VdHu1QZw&utm_campaign=yelp_api_v3&utm_medium=api_v3_business_search&utm_source=ziguwByJV8X440VdHu1QZw", "review_count": 129, "categories": [{"alias": "pizza", "title": "Pizza"}, {"alias": "italian", "title": "Italian"}, {"alias": "burgers", "title": "Burgers"}], "rating": 3.5, "coordinates": {"latitude": 42.27764, "longitude": -83.74266}, "transactions": ["pickup", "delivery"], "price": "$$", "location": {"address1": "512 E William St", "address2": "", "address3": "", "city": "Ann Arbor", "zip_code": "48104", "country": "US", "state": "MI", "display_address": ["512 E William St", "Ann Arbor, MI 48104"]}, "phone": "+17346633379", "display_phone": "(734) 663-3379", "distance": 155.8814635033391}, {"id": "p4Nad3u6PD03cJEn8VtiEw", "alias": "tippins-market-ann-arbor", "name": "Tippins Market", "image_url": "https://s3-media4.fl.yelpcdn.com/bphoto/u3PZW8_aBLYlFIcTBNjE-w/o.jpg", "is_closed": false, "url": "https://www.yelp.com/biz/tippins-market-ann-arbor?adjust_creative=ziguwByJV8X440VdHu1QZw&utm_campaign=yelp_api_v3&utm_medium=api_v3_business_search&utm_source=ziguwByJV8X440VdHu1QZw", "review_count": 31, "categories": [{"alias": "beer_and_wine", "title": "Beer, Wine & Spirits"}, {"alias": "pizza", "title": "Pizza"}], "rating": 4.5, "coordinates": {"latitude": 42.214255, "longitude": -83.7966409}, "transactions": [], "price": "$$", "location": {"address1": "4845 Ann Arbor Saline Rd", "address2": "", "address3": "", "city": "Ann Arbor", "zip_code": "48103", "country": "US", "state": "MI", "display_address": ["4845 Ann Arbor Saline Rd", "Ann Arbor, MI 48103"]}, "phone": "+17346653690", "display_phone": "(734) 665-3690", "distance": 8312.88118002235}, {"id": "DR6KtooGCyz_5GjKwoYfeg", "alias": "mancinos-ann-arbor-2", "name": "Mancino's", "image_url": "https://s3-media2.fl.yelpcdn.com/bphoto/p8OdPdYM6Nc6My0LNqJD0Q/o.jpg", "is_closed": false, "url": "https://www.yelp.com/biz/mancinos-ann-arbor-2?adjust_creative=ziguwByJV8X440VdHu1QZw&utm_campaign=yelp_api_v3&utm_medium=api_v3_business_search&utm_source=ziguwByJV8X440VdHu1QZw", "review_count": 42, "categories": [{"alias": "pizza", "title": "Pizza"}, {"alias": "sandwiches", "title": "Sandwiches"}], "rating": 3.5, "coordinates": {"latitude": 42.2460518, "longitude": -83.6803284}, "transactions": ["pickup", "delivery"], "price": "$", "location": {"address1": "2883 Carpenter Rd", "address2": "", "address3": "", "city": "Ann Arbor", "zip_code": "48108", "country": "US", "state": "MI", "display_address": ["2883 Carpenter Rd", "Ann Arbor, MI 48108"]}, "phone": "+17346773655", "display_phone": "(734) 677-3655", "distance": 6057.105806241324}], "total": 221, "region": {"center": {"longitude": -83.74122619628906, "latitude": 42.2767546461982}}}, "burger+Ann Arbor": {"businesses": [{"id": "onVQHRUQO9r7PPoOwYoCfw", "alias": "elevation-burger-ann-arbor-2", "name": "Elevation Burger", "image_url": "https://s3-media2.fl.yelpcdn.com/bphoto/kUpicRZozKjeWriE8b6idA/o.jpg", "is_closed": false, "url": "https://www.yelp.com/biz/elevation-burger-ann-arbor-2?adjust_creative=ziguwByJV8X440VdHu1QZw&utm_campaign=yelp_api_v3&utm_medium=api_v3_business_search&utm_source=ziguwByJV8X440VdHu1QZw", "review_count": 80, "categories": [{"alias": "burgers", "title": "Burgers"}], "rating": 4.0, "coordinates": {"latitude": 42.2795149, "longitude": -83.7425726}, "transactions": ["delivery"], "price": "$", "location": {"address1": "529 E Liberty St", "address2": null, "address3": "", "city": "Ann Arbor", "zip_code": "48104", "country": "US", "state": "MI", "display_address": ["529 E Liberty St", "Ann Arbor, MI 48104"]}, "phone": "+17345855465", "display_phone": "(734) 585-5465", "distance": 317.84386418686853}, {"id": "uTMqhmpgfpDMLN3W3YvMeQ", "alias": "frita-batidos-ann-arbor", "name": "Frita Batidos", "image_url": "https://s3-media2.fl.yelpcdn.com/bphoto/VyC_QzPQhxbsVQ6lRmK9vg/o.jpg", "is_closed": false, "url": "https://www.yelp.com/biz/frita-batidos-ann-arbor?adjust_creative=ziguwByJV8X440VdHu1QZw&utm_campaign=yelp_api_v3&utm_medium=api_v3_business_search&utm_source=ziguwByJV8X440VdHu1QZw", "review_count": 1467, "categories": [{"alias": "cuban", "title": "Cuban"}, {"alias": "burgers", "title": "Burgers"}], "rating": 4.5, "coordinates": {"latitude": 42.2803651, "longitude": -83.7491532}, "transactions": [], "price": "$$", "location": {"address1": "117 W Washington St", "address2": "", "address3": "", "city": "Ann Arbor", "zip_code": "48104", "country": "US", "state": "MI", "display_address": ["117 W Washington St", "Ann Arbor, MI 48104"]}, "phone": "+17347612882", "display_phone": "(734) 761-2882", "distance": 783.8571139726386}, {"id": "gc4uPzjSFczsg_JqnzNzOw", "alias": "elevation-burger-ann-arbor", "name": "Elevation Burger", "image_url": "https://s3-media3.fl.yelpcdn.com/bphoto/6-wzmdp6rgl1HvFis2O7-Q/o.jpg", "is_closed": false, "url": "https://www.yelp.com/biz/elevation-burger-ann-arbor?adjust_creative=ziguwByJV8X440VdHu1QZw&utm_campaign=yelp_api_v3&utm_medium=api_v3_business_search&utm_source=ziguwByJV8X440VdHu1QZw", "review_count": 250, "categories": [{"alias": "burgers", "title": "Burgers"}, {"alias": "vegetarian", "title": "Vegetarian"}, {"alias": "newamerican", "title": "American (New)"}], "rating": 4.0, "coordinates": {"latitude": 42.256626, "longitude": -83.692352}, "transactions": ["delivery"], "price": "$", "location": {"address1": "3365 Washtenaw Ave", "address2": "Ste L", "address3": "", "city": "Ann Arbor", "zip_code": "48104", "country": "US", "state": "MI", "display_address": ["3365 Washtenaw Ave", "Ste L", "Ann Arbor, MI 48104"]}, "phone": "+17345850467", "display_phone": "(734) 585-0467", "distance": 4602.559575516054}, {"id": "RwHu5lDLO47p8VHdCvaE1Q", "alias": "krazy-jims-blimpy-burger-ann-arbor-3", "name": "Krazy Jim's Blimpy Burger", "image_url": "https://s3-media2.fl.yelpcdn.com/bphoto/SX_EpCmRdFUQQJFZuFiSig/o.jpg", "is_closed": false, "url": "https://www.yelp.com/biz/krazy-jims-blimpy-burger-ann-arbor-3?adjust_creative=ziguwByJV8X440VdHu1QZw&utm_campaign=yelp_api_v3&utm_medium=api_v3_business_search&utm_source=ziguwByJV8X440VdHu1QZw", "review_count": 185, "categories": [{"alias": "burgers", "title": "Burgers"}], "rating": 3.5, "coordinates": {"latitude": 42.2793178, "longitude": -83.7500222}, "transactions": ["delivery"], "price": "$", "location": {"address1": "304 S Ashley St", "address2": "", "address3": "", "city": "Ann Arbor", "zip_code": "48104", "country": "US", "state": "MI", "display_address": ["304 S Ashley St", "Ann Arbor, MI 48104"]}, "phone": "+17346634590", "display_phone": "(734) 663-4590", "distance": 790.8352505372384}, {"id": "GxLFlEdzTeLO7i2Ide_7gQ", "alias": "rappourt-brew-and-chew-ann-arbor", "name": "Rappourt Brew & Chew", "image_url": "https://s3-media4.fl.yelpcdn.com/bphoto/UF98PNo7SulABxVv0_yeIg/o.jpg", "is_closed": false, "url": "https://www.yelp.com/biz/rappourt-brew-and-chew-ann-arbor?adjust_creative=ziguwByJV8X440VdHu1QZw&utm_campaign=yelp_api_v3&utm_medium=api_v3_business_search&utm_source=ziguwByJV8X440VdHu1QZw", "review_count": 130, "categories": [{"alias": "bars", "title": "Bars"}, {"alias": "burgers", "title": "Burgers"}, {"alias": "sandwiches", "title": "Sandwiches"}], "rating": 4.0, "coordinates": {"latitude": 42.30422, "longitude": -83.706674}, "transactions": [], "price": "$$", "location": {"address1": "2721 Plymouth Rd", "address2": "", "address3": null, "city": "Ann Arbor", "zip_code": "48105", "country": "US", "state": "MI", "display_address": ["2721 Plymouth Rd", "Ann Arbor, MI 48105"]}, "phone": "+17349292430", "display_phone": "(734) 929-2430", "distance": 4171.874134415078}, {"id": "n-0sVDLw6kkK5On6vZ30Zw", "alias": "caseys-tavern-ann-arbor", "name": "Casey's Tavern", "image_url": "https://s3-media2.fl.yelpcdn.com/bphoto/4MGrpGm0gv1L2ZoVzhZFBw/o.jpg", "is_closed": false, "url": "https://www.yelp.com/biz/caseys-tavern-ann-arbor?adjust_creative=ziguwByJV8X440VdHu1QZw&utm_campaign=yelp_api_v3&utm_medium=api_v3_business_search&utm_source=ziguwByJV8X440VdHu1QZw", "review_count": 191, "categories": [{"alias": "pubs", "title": "Pubs"}, {"alias": "tradamerican", "title": "American (Traditional)"}], "rating": 4.0, "coordinates": {"latitude": 42.2878269029966, "longitude": -83.7443678649288}, "transactions": [], "price": "$$", "location": {"address1": "304 Depot St", "address2": "", "address3": "", "city": "Ann Arbor", "zip_code": "48104", "country": "US", "state": "MI", "display_address": ["304 Depot St", "Ann Arbor, MI 48104"]}, "phone": "+17346656775", "display_phone": "(734) 665-6775", "distance": 1258.0127009782386}, {"id": "63FB7_5F5ZTmqmGTj0MDsw", "alias": "hunter-house-hamburgers-ann-arbor", "name": "Hunter House Hamburgers", "image_url": "https://s3-media1.fl.yelpcdn.com/bphoto/vOdJKCyPi7KOUoZp7DT43A/o.jpg", "is_closed": false, "url": "https://www.yelp.com/biz/hunter-house-hamburgers-ann-arbor?adjust_creative=ziguwByJV8X440VdHu1QZw&utm_campaign=yelp_api_v3&utm_medium=api_v3_business_search&utm_source=ziguwByJV8X440VdHu1QZw", "review_count": 105, "categories": [{"alias": "burgers", "title": "Burgers"}, {"alias": "tradamerican", "title": "American (Traditional)"}, {"alias": "waffles", "title": "Waffles"}], "rating": 3.5, "coordinates": {"latitude": 42.27804, "longitude": -83.74156}, "transactions": ["delivery", "pickup"], "price": "$", "location": {"address1": "609 E William St", "address2": null, "address3": "", "city": "Ann Arbor", "zip_code": "48104", "country": "US", "state": "MI", "display_address": ["609 E William St", "Ann Arbor, MI 48104"]}, "phone": "+17343689592", "display_phone": "(734) 368-9592", "distance": 141.16420390298785}, {"id": "ZJVhCAjBeRlzLhgRVVJD5Q", "alias": "jolly-pumpkin-caf\u00e9-and-brewery-ann-arbor-5", "name": "Jolly Pumpkin Caf\u00e9 & Brewery", "image_url": "https://s3-media4.fl.yelpcdn.com/bphoto/mOkki7CCaaEDgSgKOnfwHQ/o.jpg", "is_closed": false, "url": "https://www.yelp.com/biz/jolly-pumpkin-caf%C3%A9-and-brewery-ann-arbor-5?adjust_creative=ziguwByJV8X440VdHu1QZw&utm_campaign=yelp_api_v3&utm_medium=api_v3_business_search&utm_source=ziguwByJV8X440VdHu1QZw", "review_count": 837, "categories": [{"alias": "pubs", "title": "Pubs"}, {"alias": "breweries", "title": "Breweries"}, {"alias": "tradamerican", "title": "American (Traditional)"}], "rating": 4.0, "coordinates": {"latitude": 42.27914, "longitude": -83.74824}, "transactions": [], "price": "$$", "location": {"address1": "311 S Main St", "address2": "", "address3": "", "city": "Ann Arbor", "zip_code": "48104", "country": "US", "state": "MI", "display_address": ["311 S Main St", "Ann Arbor, MI 48104"]}, "phone": "+17349132730", "display_phone": "(734) 913-2730", "distance": 635.2563431681067}, {"id": "N-P5dPjMepH-Ce5b7q8HKQ", "alias": "zingermans-roadhouse-ann-arbor", "name": "Zingerman's Roadhouse", "image_url": "https://s3-media1.fl.yelpcdn.com/bphoto/H7-EcaT3sOuj3ACieFYz5Q/o.jpg", "is_closed": false, "url": "https://www.yelp.com/biz/zingermans-roadhouse-ann-arbor?adjust_creative=ziguwByJV8X440VdHu1QZw&utm_campaign=yelp_api_v3&utm_medium=api_v3_business_search&utm_source=ziguwByJV8X440VdHu1QZw", "review_count": 1049, "categories": [{"alias": "tradamerican", "title": "American (Traditional)"}, {"alias": "burgers", "title": "Burgers"}, {"alias": "venues", "title": "Venues & Event Spaces"}], "rating": 3.5, "coordinates": {"latitude": 42.2804461, "longitude": -83.7805119}, "transactions": [], "price": "$$", "location": {"address1": "2501 Jackson Ave", "address2": "", "address3": "", "city": "Ann Arbor", "zip_code": "48103", "country": "US", "state": "MI", "display_address": ["2501 Jackson Ave", "Ann Arbor, MI 48103"]}, "phone": "+17346633663", "display_phone": "(734) 663-3663", "distance": 3290.784890586781}, {"id": "ORnGPS4TR-usTrMD8UqgrA", "alias": "five-guys-ann-arbor-8", "name": "Five Guys", "image_url": "https://s3-media4.fl.yelpcdn.com/bphoto/3Ir1IuB7u3eS3uNNF3G42A/o.jpg", "is_closed": false, "url": "https://www.yelp.com/biz/five-guys-ann-arbor-8?adjust_creative=ziguwByJV8X440VdHu1QZw&utm_campaign=yelp_api_v3&utm_medium=api_v3_business_search&utm_source=ziguwByJV8X440VdHu1QZw", "review_count": 32, "categories": [{"alias": "burgers", "title": "Burgers"}, {"alias": "hotdogs", "title": "Fast Food"}], "rating": 3.5, "coordinates": {"latitude": 42.2561137, "longitude": -83.6881114}, "transactions": ["delivery", "pickup"], "price": "$$", "location": {"address1": "3601 Washtenaw Ave", "address2": "", "address3": "", "city": "Ann Arbor", "zip_code": "48104", "country": "US", "state": "MI", "display_address": ["3601 Washtenaw Ave", "Ann Arbor, MI 48104"]}, "phone": "+17349715050", "display_phone": "(734) 971-5050", "distance": 4936.639761295135}, {"id": "tRRg6-Qb6kkPyrZ0vdfI7w", "alias": "haymaker-public-house-ann-arbor", "name": "Haymaker Public House", "image_url": "https://s3-media3.fl.yelpcdn.com/bphoto/4nBqMyGfLI8uUbMRxx3HLQ/o.jpg", "is_closed": false, "url": "https://www.yelp.com/biz/haymaker-public-house-ann-arbor?adjust_creative=ziguwByJV8X440VdHu1QZw&utm_campaign=yelp_api_v3&utm_medium=api_v3_business_search&utm_source=ziguwByJV8X440VdHu1QZw", "review_count": 81, "categories": [{"alias": "pubs", "title": "Pubs"}, {"alias": "tradamerican", "title": "American (Traditional)"}], "rating": 4.0, "coordinates": {"latitude": 42.2805564228967, "longitude": -83.7470998987556}, "transactions": ["delivery", "pickup"], "price": "$$", "location": {"address1": "203 E Washington St", "address2": "", "address3": null, "city": "Ann Arbor", "zip_code": "48104", "country": "US", "state": "MI", "display_address": ["203 E Washington St", "Ann Arbor, MI 48104"]}, "phone": "+17349975399", "display_phone": "(734) 997-5399", "distance": 642.0465134327713}, {"id": "sV3OvP5SHojaaqSC3ryQFg", "alias": "redlight-rotisserie-ann-arbor", "name": "RedLight Rotisserie", "image_url": "https://s3-media1.fl.yelpcdn.com/bphoto/pj7OCrmZqzhvvum866qOhw/o.jpg", "is_closed": false, "url": "https://www.yelp.com/biz/redlight-rotisserie-ann-arbor?adjust_creative=ziguwByJV8X440VdHu1QZw&utm_campaign=yelp_api_v3&utm_medium=api_v3_business_search&utm_source=ziguwByJV8X440VdHu1QZw", "review_count": 6, "categories": [{"alias": "tradamerican", "title": "American (Traditional)"}, {"alias": "burgers", "title": "Burgers"}, {"alias": "sandwiches", "title": "Sandwiches"}], "rating": 2.5, "coordinates": {"latitude": 42.27167, "longitude": -83.74087}, "transactions": ["delivery", "pickup"], "location": {"address1": "800 S State St", "address2": "", "address3": null, "city": "Ann Arbor", "zip_code": "48104", "country": "US", "state": "MI", "display_address": ["800 S State St", "Ann Arbor, MI 48104"]}, "phone": "", "display_phone": "", "distance": 562.0366168252912}, {"id": "j7Ukf82vXmCYImj2smZkWQ", "alias": "first-bite-ann-arbor-2", "name": "First Bite", "image_url": "https://s3-media3.fl.yelpcdn.com/bphoto/c9zBduygqPzW__OASRXuMQ/o.jpg", "is_closed": false, "url": "https://www.yelp.com/biz/first-bite-ann-arbor-2?adjust_creative=ziguwByJV8X440VdHu1QZw&utm_campaign=yelp_api_v3&utm_medium=api_v3_business_search&utm_source=ziguwByJV8X440VdHu1QZw", "review_count": 32, "categories": [{"alias": "breakfast_brunch", "title": "Breakfast & Brunch"}, {"alias": "gluten_free", "title": "Gluten-Free"}, {"alias": "coffee", "title": "Coffee & Tea"}], "rating": 5.0, "coordinates": {"latitude": 42.2811, "longitude": -83.7489}, "transactions": [], "price": "$$", "location": {"address1": "108 S Main St", "address2": "", "address3": null, "city": "Ann Arbor", "zip_code": "48104", "country": "US", "state": "MI", "display_address": ["108 S Main St", "Ann Arbor, MI 48104"]}, "phone": "+17343694765", "display_phone": "(734) 369-4765", "distance": 801.1858787905397}, {"id": "lLsG4YKZfM1c2QPKeZFvgQ", "alias": "ashleys-ann-arbor-3", "name": "Ashley's", "image_url": "https://s3-media1.fl.yelpcdn.com/bphoto/EBuTj5rmHtynwilPMZPMMg/o.jpg", "is_closed": false, "url": "https://www.yelp.com/biz/ashleys-ann-arbor-3?adjust_creative=ziguwByJV8X440VdHu1QZw&utm_campaign=yelp_api_v3&utm_medium=api_v3_business_search&utm_source=ziguwByJV8X440VdHu1QZw", "review_count": 400, "categories": [{"alias": "pubs", "title": "Pubs"}, {"alias": "tradamerican", "title": "American (Traditional)"}, {"alias": "beerbar", "title": "Beer Bar"}], "rating": 3.5, "coordinates": {"latitude": 42.27808, "longitude": -83.74114}, "transactions": ["delivery", "pickup"], "price": "$$", "location": {"address1": "338 S State St", "address2": "", "address3": "", "city": "Ann Arbor", "zip_code": "48104", "country": "US", "state": "MI", "display_address": ["338 S State St", "Ann Arbor, MI 48104"]}, "phone": "+17349969191", "display_phone": "(734) 996-9191", "distance": 146.3986938648807}, {"id": "JX2dAKjq-yJPAfJbpn6nMA", "alias": "hopcat-ann-arbor", "name": "HopCat", "image_url": "https://s3-media1.fl.yelpcdn.com/bphoto/mxnMp4HAeAyZ-A8zLLdSQg/o.jpg", "is_closed": false, "url": "https://www.yelp.com/biz/hopcat-ann-arbor?adjust_creative=ziguwByJV8X440VdHu1QZw&utm_campaign=yelp_api_v3&utm_medium=api_v3_business_search&utm_source=ziguwByJV8X440VdHu1QZw", "review_count": 316, "categories": [{"alias": "tradamerican", "title": "American (Traditional)"}, {"alias": "pubs", "title": "Pubs"}], "rating": 3.5, "coordinates": {"latitude": 42.2789617521342, "longitude": -83.7418388478851}, "transactions": [], "price": "$$", "location": {"address1": "311 Maynard", "address2": "", "address3": "", "city": "Ann Arbor", "zip_code": "48104", "country": "US", "state": "MI", "display_address": ["311 Maynard", "Ann Arbor, MI 48104"]}, "phone": "+17344362875", "display_phone": "(734) 436-2875", "distance": 250.54124787928953}, {"id": "VKSttQeK0NmP5n-3T-jX-A", "alias": "old-town-tavern-ann-arbor", "name": "Old Town Tavern", "image_url": "https://s3-media1.fl.yelpcdn.com/bphoto/yRH3Udu2Gnk-wx3lVVzalg/o.jpg", "is_closed": false, "url": "https://www.yelp.com/biz/old-town-tavern-ann-arbor?adjust_creative=ziguwByJV8X440VdHu1QZw&utm_campaign=yelp_api_v3&utm_medium=api_v3_business_search&utm_source=ziguwByJV8X440VdHu1QZw", "review_count": 111, "categories": [{"alias": "bars", "title": "Bars"}, {"alias": "tradamerican", "title": "American (Traditional)"}], "rating": 4.0, "coordinates": {"latitude": 42.2798195, "longitude": -83.7496719}, "transactions": [], "price": "$$", "location": {"address1": "122 W Liberty St", "address2": "", "address3": "", "city": "Ann Arbor", "zip_code": "48104", "country": "US", "state": "MI", "display_address": ["122 W Liberty St", "Ann Arbor, MI 48104"]}, "phone": "+17346629291", "display_phone": "(734) 662-9291", "distance": 774.3772387218504}, {"id": "WQGUTUmR5uge1Z6PZYd4Rw", "alias": "mr-spots-ann-arbor", "name": "Mr Spots", "image_url": "https://s3-media1.fl.yelpcdn.com/bphoto/kpy1VmN0E2gaqva4EnvDhQ/o.jpg", "is_closed": false, "url": "https://www.yelp.com/biz/mr-spots-ann-arbor?adjust_creative=ziguwByJV8X440VdHu1QZw&utm_campaign=yelp_api_v3&utm_medium=api_v3_business_search&utm_source=ziguwByJV8X440VdHu1QZw", "review_count": 91, "categories": [{"alias": "sandwiches", "title": "Sandwiches"}, {"alias": "tradamerican", "title": "American (Traditional)"}], "rating": 4.0, "coordinates": {"latitude": 42.2716217, "longitude": -83.7407532}, "transactions": ["delivery", "pickup"], "price": "$", "location": {"address1": "808 S State St", "address2": "", "address3": "", "city": "Ann Arbor", "zip_code": "48104", "country": "US", "state": "MI", "display_address": ["808 S State St", "Ann Arbor, MI 48104"]}, "phone": "+17347477768", "display_phone": "(734) 747-7768", "distance": 573.8629149746378}, {"id": "B-Hh0qSJlRvg3YijPR0Ckw", "alias": "biercamp-ann-arbor", "name": "Biercamp", "image_url": "https://s3-media3.fl.yelpcdn.com/bphoto/uwJARqsr-d0_V5A1e7I4DQ/o.jpg", "is_closed": false, "url": "https://www.yelp.com/biz/biercamp-ann-arbor?adjust_creative=ziguwByJV8X440VdHu1QZw&utm_campaign=yelp_api_v3&utm_medium=api_v3_business_search&utm_source=ziguwByJV8X440VdHu1QZw", "review_count": 156, "categories": [{"alias": "meats", "title": "Meat Shops"}, {"alias": "breweries", "title": "Breweries"}, {"alias": "hotdog", "title": "Hot Dogs"}], "rating": 4.5, "coordinates": {"latitude": 42.25849, "longitude": -83.73975}, "transactions": [], "price": "$$", "location": {"address1": "1643 S State St", "address2": "", "address3": "", "city": "Ann Arbor", "zip_code": "48104", "country": "US", "state": "MI", "display_address": ["1643 S State St", "Ann Arbor, MI 48104"]}, "phone": "+17349952437", "display_phone": "(734) 995-2437", "distance": 2030.4208147833965}, {"id": "0b11Vx6_AIiuxAUpq7UqAg", "alias": "eat-ann-arbor-2", "name": "eat", "image_url": "https://s3-media2.fl.yelpcdn.com/bphoto/5pFr5DQSfBVGRm437hSg2g/o.jpg", "is_closed": false, "url": "https://www.yelp.com/biz/eat-ann-arbor-2?adjust_creative=ziguwByJV8X440VdHu1QZw&utm_campaign=yelp_api_v3&utm_medium=api_v3_business_search&utm_source=ziguwByJV8X440VdHu1QZw", "review_count": 152, "categories": [{"alias": "newamerican", "title": "American (New)"}], "rating": 4.0, "coordinates": {"latitude": 42.2585802, "longitude": -83.7286638}, "transactions": [], "price": "$$", "location": {"address1": "1906 Packard St", "address2": "", "address3": "", "city": "Ann Arbor", "zip_code": "48104", "country": "US", "state": "MI", "display_address": ["1906 Packard St", "Ann Arbor, MI 48104"]}, "phone": "+17342137011", "display_phone": "(734) 213-7011", "distance": 2269.9319334308902}, {"id": "8dp_CA9Qo4tBRRW0HrnOlw", "alias": "got-burger-ypsilanti", "name": "Got Burger!", "image_url": "https://s3-media2.fl.yelpcdn.com/bphoto/YcI92c4_mRfFP518fkQQTw/o.jpg", "is_closed": false, "url": "https://www.yelp.com/biz/got-burger-ypsilanti?adjust_creative=ziguwByJV8X440VdHu1QZw&utm_campaign=yelp_api_v3&utm_medium=api_v3_business_search&utm_source=ziguwByJV8X440VdHu1QZw", "review_count": 109, "categories": [{"alias": "hotdog", "title": "Hot Dogs"}, {"alias": "burgers", "title": "Burgers"}], "rating": 4.0, "coordinates": {"latitude": 42.245569, "longitude": -83.616335}, "transactions": ["delivery", "pickup"], "price": "$", "location": {"address1": "301 W Cross St", "address2": "", "address3": "", "city": "Ypsilanti", "zip_code": "48197", "country": "US", "state": "MI", "display_address": ["301 W Cross St", "Ypsilanti, MI 48197"]}, "phone": "+17342197240", "display_phone": "(734) 219-7240", "distance": 10847.00319242134}], "total": 275, "region": {"center": {"longitude": -83.74122619628906, "latitude": 42.2767546461982}}}, "tacos+Ann Arbor": {"businesses": [{"id": "eEUJ8kJNsN75kB6d87lUJA", "alias": "la-taqueria-ann-arbor-ann-arbor", "name": "La Taqueria Ann Arbor", "image_url": "https://s3-media2.fl.yelpcdn.com/bphoto/kYcWmT8ZMv6V-B52GGGJ1w/o.jpg", "is_closed": false, "url": "https://www.yelp.com/biz/la-taqueria-ann-arbor-ann-arbor?adjust_creative=ziguwByJV8X440VdHu1QZw&utm_campaign=yelp_api_v3&utm_medium=api_v3_business_search&utm_source=ziguwByJV8X440VdHu1QZw", "review_count": 54, "categories": [{"alias": "tacos", "title": "Tacos"}, {"alias": "latin", "title": "Latin American"}, {"alias": "asianfusion", "title": "Asian Fusion"}], "rating": 4.0, "coordinates": {"latitude": 42.2794213, "longitude": -83.7483554}, "transactions": [], "price": "$$", "location": {"address1": "106 E Liberty St", "address2": "", "address3": null, "city": "Ann Arbor", "zip_code": "48104", "country": "US", "state": "MI", "display_address": ["106 E Liberty St", "Ann Arbor, MI 48104"]}, "phone": "+17343696922", "display_phone": "(734) 369-6922", "distance": 644.2217099025648}, {"id": "8nKu9TATiJyjhYvijD7vIw", "alias": "tmaz-taqueria-ann-arbor", "name": "Tmaz Taqueria", "image_url": "https://s3-media1.fl.yelpcdn.com/bphoto/fBOIBjDCj2KUQq6Ijpe88Q/o.jpg", "is_closed": false, "url": "https://www.yelp.com/biz/tmaz-taqueria-ann-arbor?adjust_creative=ziguwByJV8X440VdHu1QZw&utm_campaign=yelp_api_v3&utm_medium=api_v3_business_search&utm_source=ziguwByJV8X440VdHu1QZw", "review_count": 377, "categories": [{"alias": "mexican", "title": "Mexican"}], "rating": 4.0, "coordinates": {"latitude": 42.2449934, "longitude": -83.6965964}, "transactions": ["delivery", "pickup"], "price": "$", "location": {"address1": "3182 Packard St", "address2": "", "address3": "", "city": "Ann Arbor", "zip_code": "48108", "country": "US", "state": "MI", "display_address": ["3182 Packard St", "Ann Arbor, MI 48108"]}, "phone": "+17344776089", "display_phone": "(734) 477-6089", "distance": 5139.478230529409}, {"id": "T7q_UCRZlbImpETHxXGWnw", "alias": "chelas-ann-arbor", "name": "Chela's", "image_url": "https://s3-media2.fl.yelpcdn.com/bphoto/qjDLq3n0EKWIN-_LNLiwBQ/o.jpg", "is_closed": false, "url": "https://www.yelp.com/biz/chelas-ann-arbor?adjust_creative=ziguwByJV8X440VdHu1QZw&utm_campaign=yelp_api_v3&utm_medium=api_v3_business_search&utm_source=ziguwByJV8X440VdHu1QZw", "review_count": 296, "categories": [{"alias": "mexican", "title": "Mexican"}, {"alias": "gluten_free", "title": "Gluten-Free"}], "rating": 4.5, "coordinates": {"latitude": 42.2736697, "longitude": -83.7797882}, "transactions": ["pickup"], "price": "$", "location": {"address1": "693 S Maple Rd", "address2": "", "address3": "", "city": "Ann Arbor", "zip_code": "48103", "country": "US", "state": "MI", "display_address": ["693 S Maple Rd", "Ann Arbor, MI 48103"]}, "phone": "+17343326055", "display_phone": "(734) 332-6055", "distance": 3153.618741705428}, {"id": "GPzt1fncpK_Foi_DBYlYBg", "alias": "isalita-ann-arbor", "name": "Isalita", "image_url": "https://s3-media3.fl.yelpcdn.com/bphoto/Kax_19qwZS5tAHhxs5WUsQ/o.jpg", "is_closed": false, "url": "https://www.yelp.com/biz/isalita-ann-arbor?adjust_creative=ziguwByJV8X440VdHu1QZw&utm_campaign=yelp_api_v3&utm_medium=api_v3_business_search&utm_source=ziguwByJV8X440VdHu1QZw", "review_count": 442, "categories": [{"alias": "mexican", "title": "Mexican"}], "rating": 4.0, "coordinates": {"latitude": 42.2794618, "longitude": -83.7444065}, "transactions": [], "price": "$$", "location": {"address1": "341 E Liberty St", "address2": "Ste 2", "address3": "", "city": "Ann Arbor", "zip_code": "48104", "country": "US", "state": "MI", "display_address": ["341 E Liberty St", "Ste 2", "Ann Arbor, MI 48104"]}, "phone": "+17342137400", "display_phone": "(734) 213-7400", "distance": 398.84098999283776}, {"id": "9sMAU3_USGs6I7aD-hnebg", "alias": "chelas-ann-arbor-3", "name": "Chela's", "image_url": "https://s3-media3.fl.yelpcdn.com/bphoto/1sV60AXHdBGaJKXpQthsVQ/o.jpg", "is_closed": false, "url": "https://www.yelp.com/biz/chelas-ann-arbor-3?adjust_creative=ziguwByJV8X440VdHu1QZw&utm_campaign=yelp_api_v3&utm_medium=api_v3_business_search&utm_source=ziguwByJV8X440VdHu1QZw", "review_count": 65, "categories": [{"alias": "mexican", "title": "Mexican"}, {"alias": "breakfast_brunch", "title": "Breakfast & Brunch"}], "rating": 4.5, "coordinates": {"latitude": 42.27919, "longitude": -83.74589}, "transactions": [], "price": "$", "location": {"address1": "307 S 5th Ave", "address2": "", "address3": null, "city": "Ann Arbor", "zip_code": "48104", "country": "US", "state": "MI", "display_address": ["307 S 5th Ave", "Ann Arbor, MI 48104"]}, "phone": "+17347807078", "display_phone": "(734) 780-7078", "distance": 470.25637134176316}, {"id": "aOc-9F6gewlgdJyShVkEbA", "alias": "taco-king-ann-arbor", "name": "Taco King", "image_url": "https://s3-media1.fl.yelpcdn.com/bphoto/1mYqfZvdLprDYUI9EET1AQ/o.jpg", "is_closed": false, "url": "https://www.yelp.com/biz/taco-king-ann-arbor?adjust_creative=ziguwByJV8X440VdHu1QZw&utm_campaign=yelp_api_v3&utm_medium=api_v3_business_search&utm_source=ziguwByJV8X440VdHu1QZw", "review_count": 114, "categories": [{"alias": "mexican", "title": "Mexican"}], "rating": 3.5, "coordinates": {"latitude": 42.2737399, "longitude": -83.7771999}, "transactions": ["delivery", "pickup"], "price": "$", "location": {"address1": "2231 W Liberty St", "address2": "", "address3": "", "city": "Ann Arbor", "zip_code": "48103", "country": "US", "state": "MI", "display_address": ["2231 W Liberty St", "Ann Arbor, MI 48103"]}, "phone": "+17345855796", "display_phone": "(734) 585-5796", "distance": 2969.914830363481}, {"id": "PpWT2wzc8U8P1gn-TI1j8Q", "alias": "mi-compadre-ann-arbor", "name": "Mi Compadre", "image_url": "https://s3-media3.fl.yelpcdn.com/bphoto/tIchL-iyy7kOvzqs7c7Hiw/o.jpg", "is_closed": false, "url": "https://www.yelp.com/biz/mi-compadre-ann-arbor?adjust_creative=ziguwByJV8X440VdHu1QZw&utm_campaign=yelp_api_v3&utm_medium=api_v3_business_search&utm_source=ziguwByJV8X440VdHu1QZw", "review_count": 80, "categories": [{"alias": "mexican", "title": "Mexican"}], "rating": 4.0, "coordinates": {"latitude": 42.2564726608719, "longitude": -83.7262933328748}, "transactions": ["delivery", "pickup"], "price": "$", "location": {"address1": "2111 Packard St", "address2": "", "address3": "", "city": "Ann Arbor", "zip_code": "48104", "country": "US", "state": "MI", "display_address": ["2111 Packard St", "Ann Arbor, MI 48104"]}, "phone": "+17346043868", "display_phone": "(734) 604-3868", "distance": 2568.2776824407324}, {"id": "XOs9NgF-PTgX1WhIQiMrqA", "alias": "la-torre-taqueria-ypsilanti", "name": "La Torre Taqueria", "image_url": "https://s3-media1.fl.yelpcdn.com/bphoto/AXoXUDP50yh2BVDvrCQryw/o.jpg", "is_closed": false, "url": "https://www.yelp.com/biz/la-torre-taqueria-ypsilanti?adjust_creative=ziguwByJV8X440VdHu1QZw&utm_campaign=yelp_api_v3&utm_medium=api_v3_business_search&utm_source=ziguwByJV8X440VdHu1QZw", "review_count": 115, "categories": [{"alias": "mexican", "title": "Mexican"}], "rating": 4.5, "coordinates": {"latitude": 42.2471827, "longitude": -83.637452}, "transactions": [], "price": "$", "location": {"address1": "1525 Washtenaw Ave", "address2": "", "address3": "", "city": "Ypsilanti", "zip_code": "48197", "country": "US", "state": "MI", "display_address": ["1525 Washtenaw Ave", "Ypsilanti, MI 48197"]}, "phone": "+17349057220", "display_phone": "(734) 905-7220", "distance": 9113.818138072098}, {"id": "1b9Xu7N2pkqf2zBiLQAQQw", "alias": "cantina-ann-arbor", "name": "Cantina", "image_url": "https://s3-media3.fl.yelpcdn.com/bphoto/W4c3fMpwQafXuVVq2RsDVA/o.jpg", "is_closed": false, "url": "https://www.yelp.com/biz/cantina-ann-arbor?adjust_creative=ziguwByJV8X440VdHu1QZw&utm_campaign=yelp_api_v3&utm_medium=api_v3_business_search&utm_source=ziguwByJV8X440VdHu1QZw", "review_count": 75, "categories": [{"alias": "bars", "title": "Bars"}, {"alias": "mexican", "title": "Mexican"}, {"alias": "tapasmallplates", "title": "Tapas/Small Plates"}], "rating": 4.0, "coordinates": {"latitude": 42.27479, "longitude": -83.73483}, "transactions": [], "price": "$", "location": {"address1": "1140 S University Ave", "address2": null, "address3": null, "city": "Ann Arbor", "zip_code": "48104", "country": "US", "state": "MI", "display_address": ["1140 S University Ave", "Ann Arbor, MI 48104"]}, "phone": "+17342223715", "display_phone": "(734) 222-3715", "distance": 572.659064215903}, {"id": "oeAIPzIs3Xfq0hIFDnogsg", "alias": "cosa-sabrosa-ann-arbor", "name": "Cosa Sabrosa", "image_url": "https://s3-media1.fl.yelpcdn.com/bphoto/2pPk8dbsahhtX0-G5BiCZg/o.jpg", "is_closed": false, "url": "https://www.yelp.com/biz/cosa-sabrosa-ann-arbor?adjust_creative=ziguwByJV8X440VdHu1QZw&utm_campaign=yelp_api_v3&utm_medium=api_v3_business_search&utm_source=ziguwByJV8X440VdHu1QZw", "review_count": 6, "categories": [{"alias": "foodtrucks", "title": "Food Trucks"}, {"alias": "mexican", "title": "Mexican"}, {"alias": "latin", "title": "Latin American"}], "rating": 5.0, "coordinates": {"latitude": 42.27199, "longitude": -83.77442}, "transactions": [], "location": {"address1": "2070 W Stadium Blvd", "address2": "", "address3": null, "city": "Ann Arbor", "zip_code": "48109", "country": "US", "state": "MI", "display_address": ["2070 W Stadium Blvd", "Ann Arbor, MI 48109"]}, "phone": "+17346782620", "display_phone": "(734) 678-2620", "distance": 2799.3663466876656}, {"id": "79HDXRRjngoDqJ4re5kd5w", "alias": "minys-mexican-restaurant-ypsilanti", "name": "Miny's Mexican Restaurant", "image_url": "https://s3-media1.fl.yelpcdn.com/bphoto/tk4h9XuCD7Z59Xf1zdEC6w/o.jpg", "is_closed": false, "url": "https://www.yelp.com/biz/minys-mexican-restaurant-ypsilanti?adjust_creative=ziguwByJV8X440VdHu1QZw&utm_campaign=yelp_api_v3&utm_medium=api_v3_business_search&utm_source=ziguwByJV8X440VdHu1QZw", "review_count": 50, "categories": [{"alias": "tacos", "title": "Tacos"}], "rating": 4.5, "coordinates": {"latitude": 42.25061, "longitude": -83.65686}, "transactions": [], "price": "$", "location": {"address1": "2866 Washtenaw Rd", "address2": null, "address3": "", "city": "Ypsilanti", "zip_code": "48197", "country": "US", "state": "MI", "display_address": ["2866 Washtenaw Rd", "Ypsilanti, MI 48197"]}, "phone": "+17344340857", "display_phone": "(734) 434-0857", "distance": 7566.253231467476}, {"id": "xihWs_RmaKUkJgdXwFxtAg", "alias": "agave-tequila-ann-arbor", "name": "Agave Tequila", "image_url": "https://s3-media2.fl.yelpcdn.com/bphoto/9-Ogq5sfmYYrN6-NU3TzjA/o.jpg", "is_closed": false, "url": "https://www.yelp.com/biz/agave-tequila-ann-arbor?adjust_creative=ziguwByJV8X440VdHu1QZw&utm_campaign=yelp_api_v3&utm_medium=api_v3_business_search&utm_source=ziguwByJV8X440VdHu1QZw", "review_count": 209, "categories": [{"alias": "mexican", "title": "Mexican"}, {"alias": "latin", "title": "Latin American"}, {"alias": "bars", "title": "Bars"}], "rating": 3.0, "coordinates": {"latitude": 42.28281, "longitude": -83.74881}, "transactions": ["delivery"], "price": "$$", "location": {"address1": "211 N Main St", "address2": "", "address3": "", "city": "Ann Arbor", "zip_code": "48104", "country": "US", "state": "MI", "display_address": ["211 N Main St", "Ann Arbor, MI 48104"]}, "phone": "+17342147775", "display_phone": "(734) 214-7775", "distance": 909.4058790638645}, {"id": "t7zMY-nrQo09-UGtxOIugg", "alias": "tios-restaurant-ann-arbor-2", "name": "Tio's Restaurant", "image_url": "https://s3-media3.fl.yelpcdn.com/bphoto/KZA2Mt5ErOPMRfvqyBZoKQ/o.jpg", "is_closed": false, "url": "https://www.yelp.com/biz/tios-restaurant-ann-arbor-2?adjust_creative=ziguwByJV8X440VdHu1QZw&utm_campaign=yelp_api_v3&utm_medium=api_v3_business_search&utm_source=ziguwByJV8X440VdHu1QZw", "review_count": 250, "categories": [{"alias": "mexican", "title": "Mexican"}], "rating": 3.0, "coordinates": {"latitude": 42.2794575244188, "longitude": -83.7438514083624}, "transactions": [], "price": "$$", "location": {"address1": "401 E Liberty St", "address2": "", "address3": "", "city": "Ann Arbor", "zip_code": "48104", "country": "US", "state": "MI", "display_address": ["401 E Liberty St", "Ann Arbor, MI 48104"]}, "phone": "+17347616650", "display_phone": "(734) 761-6650", "distance": 369.04139999854846}, {"id": "nnYmh4AvU9x8V73iqT_3Hg", "alias": "don-juan-mexican-bar-and-grill-ann-arbor", "name": "Don Juan Mexican Bar & Grill", "image_url": "https://s3-media2.fl.yelpcdn.com/bphoto/2CsANFhrLtend2CD9kK0Fg/o.jpg", "is_closed": false, "url": "https://www.yelp.com/biz/don-juan-mexican-bar-and-grill-ann-arbor?adjust_creative=ziguwByJV8X440VdHu1QZw&utm_campaign=yelp_api_v3&utm_medium=api_v3_business_search&utm_source=ziguwByJV8X440VdHu1QZw", "review_count": 75, "categories": [{"alias": "mexican", "title": "Mexican"}], "rating": 3.5, "coordinates": {"latitude": 42.272736, "longitude": -83.775584}, "transactions": ["delivery", "pickup"], "price": "$$", "location": {"address1": "2135 W Stadium Blvd", "address2": "", "address3": "", "city": "Ann Arbor", "zip_code": "48103", "country": "US", "state": "MI", "display_address": ["2135 W Stadium Blvd", "Ann Arbor, MI 48103"]}, "phone": "+17347691650", "display_phone": "(734) 769-1650", "distance": 2861.926830818194}, {"id": "1Y1n91qG7tGlBBi5xnEIIQ", "alias": "taqueria-la-marqueza-ypsilanti-4", "name": "Taqueria La Marqueza", "image_url": "https://s3-media3.fl.yelpcdn.com/bphoto/YgqCb6GzFdFpAmx0JRtEyw/o.jpg", "is_closed": false, "url": "https://www.yelp.com/biz/taqueria-la-marqueza-ypsilanti-4?adjust_creative=ziguwByJV8X440VdHu1QZw&utm_campaign=yelp_api_v3&utm_medium=api_v3_business_search&utm_source=ziguwByJV8X440VdHu1QZw", "review_count": 35, "categories": [{"alias": "mexican", "title": "Mexican"}], "rating": 4.5, "coordinates": {"latitude": 42.2453580569556, "longitude": -83.5831713559196}, "transactions": [], "price": "$", "location": {"address1": "1396 E Michigan Ave", "address2": "Ste A", "address3": "", "city": "Ypsilanti", "zip_code": "48198", "country": "US", "state": "MI", "display_address": ["1396 E Michigan Ave", "Ste A", "Ypsilanti, MI 48198"]}, "phone": "+17342197510", "display_phone": "(734) 219-7510", "distance": 13467.332222736835}, {"id": "-7MH7ZaxMKfLl4_SwYWdGw", "alias": "los-amigos-ann-arbor-ann-arbor-2", "name": "Los Amigos Ann Arbor", "image_url": "https://s3-media3.fl.yelpcdn.com/bphoto/7M-WACCpA6pQ_0FFQOG7Bw/o.jpg", "is_closed": false, "url": "https://www.yelp.com/biz/los-amigos-ann-arbor-ann-arbor-2?adjust_creative=ziguwByJV8X440VdHu1QZw&utm_campaign=yelp_api_v3&utm_medium=api_v3_business_search&utm_source=ziguwByJV8X440VdHu1QZw", "review_count": 81, "categories": [{"alias": "mexican", "title": "Mexican"}], "rating": 3.5, "coordinates": {"latitude": 42.239958, "longitude": -83.740742}, "transactions": ["delivery", "pickup"], "price": "$$", "location": {"address1": "625 Hilton Blvd", "address2": "", "address3": "", "city": "Ann Arbor", "zip_code": "48108", "country": "US", "state": "MI", "display_address": ["625 Hilton Blvd", "Ann Arbor, MI 48108"]}, "phone": "+17343270500", "display_phone": "(734) 327-0500", "distance": 4091.7898731619034}, {"id": "NqX4lGSFP5mUeMywFxbn-w", "alias": "los-amigos-fiesta-ann-arbor", "name": "Los Amigos Fiesta", "image_url": "https://s3-media1.fl.yelpcdn.com/bphoto/QM2ayINvLuqz5Cpd4w9qEQ/o.jpg", "is_closed": false, "url": "https://www.yelp.com/biz/los-amigos-fiesta-ann-arbor?adjust_creative=ziguwByJV8X440VdHu1QZw&utm_campaign=yelp_api_v3&utm_medium=api_v3_business_search&utm_source=ziguwByJV8X440VdHu1QZw", "review_count": 47, "categories": [{"alias": "mexican", "title": "Mexican"}], "rating": 3.0, "coordinates": {"latitude": 42.2514839172363, "longitude": -83.6637420654297}, "transactions": ["delivery", "pickup"], "price": "$$", "location": {"address1": "4855 Washtenaw Ave", "address2": null, "address3": "", "city": "Ann Arbor", "zip_code": "48108", "country": "US", "state": "MI", "display_address": ["4855 Washtenaw Ave", "Ann Arbor, MI 48108"]}, "phone": "+17344345554", "display_phone": "(734) 434-5554", "distance": 6967.887987085231}, {"id": "zwqbpBYHJzNxhGQ0sAZdCw", "alias": "dolores-ypsilanti-4", "name": "Dolores", "image_url": "https://s3-media3.fl.yelpcdn.com/bphoto/oIQ_bxORawQ1hzGtgzTJSg/o.jpg", "is_closed": false, "url": "https://www.yelp.com/biz/dolores-ypsilanti-4?adjust_creative=ziguwByJV8X440VdHu1QZw&utm_campaign=yelp_api_v3&utm_medium=api_v3_business_search&utm_source=ziguwByJV8X440VdHu1QZw", "review_count": 48, "categories": [{"alias": "tacos", "title": "Tacos"}, {"alias": "cocktailbars", "title": "Cocktail Bars"}], "rating": 4.0, "coordinates": {"latitude": 42.24068, "longitude": -83.61487}, "transactions": [], "price": "$$", "location": {"address1": "6 S Washington St", "address2": "", "address3": null, "city": "Ypsilanti", "zip_code": "48197", "country": "US", "state": "MI", "display_address": ["6 S Washington St", "Ypsilanti, MI 48197"]}, "phone": "+17349049402", "display_phone": "(734) 904-9402", "distance": 11145.490667346723}, {"id": "nfCSWsUpuZ755D0ihioVvQ", "alias": "ma\u00ecz-mexican-cantina-ypsilanti-2", "name": "Ma\u00ecz Mexican Cantina", "image_url": "https://s3-media1.fl.yelpcdn.com/bphoto/XF4fs7_1_PXCfTYPb-OZzA/o.jpg", "is_closed": false, "url": "https://www.yelp.com/biz/ma%C3%ACz-mexican-cantina-ypsilanti-2?adjust_creative=ziguwByJV8X440VdHu1QZw&utm_campaign=yelp_api_v3&utm_medium=api_v3_business_search&utm_source=ziguwByJV8X440VdHu1QZw", "review_count": 417, "categories": [{"alias": "mexican", "title": "Mexican"}], "rating": 4.0, "coordinates": {"latitude": 42.24572, "longitude": -83.60967}, "transactions": [], "price": "$$", "location": {"address1": "36 E Cross St", "address2": "", "address3": "", "city": "Ypsilanti", "zip_code": "48198", "country": "US", "state": "MI", "display_address": ["36 E Cross St", "Ypsilanti, MI 48198"]}, "phone": "+17343406010", "display_phone": "(734) 340-6010", "distance": 11354.855952878235}, {"id": "PxCSjjlOmAZVox_UyCGrOw", "alias": "banditos-restaurant-ann-arbor", "name": "Bandito's Restaurant", "image_url": "https://s3-media1.fl.yelpcdn.com/bphoto/jQcNwgXTPF3KZDQw5RMPog/o.jpg", "is_closed": false, "url": "https://www.yelp.com/biz/banditos-restaurant-ann-arbor?adjust_creative=ziguwByJV8X440VdHu1QZw&utm_campaign=yelp_api_v3&utm_medium=api_v3_business_search&utm_source=ziguwByJV8X440VdHu1QZw", "review_count": 144, "categories": [{"alias": "mexican", "title": "Mexican"}], "rating": 3.5, "coordinates": {"latitude": 42.2798137, "longitude": -83.7476017}, "transactions": ["delivery", "pickup"], "price": "$$", "location": {"address1": "216 S 4th Ave", "address2": "", "address3": "", "city": "Ann Arbor", "zip_code": "48104", "country": "US", "state": "MI", "display_address": ["216 S 4th Ave", "Ann Arbor, MI 48104"]}, "phone": "+17349960234", "display_phone": "(734) 996-0234", "distance": 625.7095856293347}], "total": 181, "region": {"center": {"longitude": -83.74122619628906, "latitude": 42.2767546461982}}}, "tacos+New York": {"businesses": [{"id": "jnEv25Y2DosTq2sNnvmC9g", "alias": "los-tacos-no-1-new-york", "name": "Los Tacos No.1", "image_url": "https://s3-media2.fl.yelpcdn.com/bphoto/FU44TYl3PzXsE06G4W5aog/o.jpg", "is_closed": false, "url": "https://www.yelp.com/biz/los-tacos-no-1-new-york?adjust_creative=ziguwByJV8X440VdHu1QZw&utm_campaign=yelp_api_v3&utm_medium=api_v3_business_search&utm_source=ziguwByJV8X440VdHu1QZw", "review_count": 2493, "categories": [{"alias": "tacos", "title": "Tacos"}], "rating": 4.5, "coordinates": {"latitude": 40.7425547, "longitude": -74.0060838}, "transactions": [], "price": "$", "location": {"address1": "75 9th Ave", "address2": "", "address3": "", "city": "New York", "zip_code": "10011", "country": "US", "state": "NY", "display_address": ["75 9th Ave", "New York, NY 10011"]}, "phone": "+12122560343", "display_phone": "(212) 256-0343", "distance": 4244.358699250552}, {"id": "SULHf6nGQ8sK0UpG1XU30w", "alias": "los-tacos-no-1-new-york-3", "name": "Los Tacos No.1", "image_url": "https://s3-media3.fl.yelpcdn.com/bphoto/Fl02DXkpDGzRZjrT44bzNQ/o.jpg", "is_closed": false, "url": "https://www.yelp.com/biz/los-tacos-no-1-new-york-3?adjust_creative=ziguwByJV8X440VdHu1QZw&utm_campaign=yelp_api_v3&utm_medium=api_v3_business_search&utm_source=ziguwByJV8X440VdHu1QZw", "review_count": 892, "categories": [{"alias": "tacos", "title": "Tacos"}], "rating": 4.5, "coordinates": {"latitude": 40.7575067, "longitude": -73.9877717}, "transactions": [], "price": "$", "location": {"address1": "229 W 43rd St", "address2": "", "address3": null, "city": "New York", "zip_code": "10036", "country": "US", "state": "NY", "display_address": ["229 W 43rd St", "New York, NY 10036"]}, "phone": "+12125744696", "display_phone": "(212) 574-4696", "distance": 5815.027424033859}, {"id": "47iHi0mYuq33INDWanGchw", "alias": "taco-electrico-new-york", "name": "Taco Electrico", "image_url": "https://s3-media2.fl.yelpcdn.com/bphoto/_N1GpGrrwSSIc-5_5hH1Cg/o.jpg", "is_closed": false, "url": "https://www.yelp.com/biz/taco-electrico-new-york?adjust_creative=ziguwByJV8X440VdHu1QZw&utm_campaign=yelp_api_v3&utm_medium=api_v3_business_search&utm_source=ziguwByJV8X440VdHu1QZw", "review_count": 51, "categories": [{"alias": "mexican", "title": "Mexican"}], "rating": 3.5, "coordinates": {"latitude": 40.736544, "longitude": -73.988442}, "transactions": [], "location": {"address1": "201 Park Ave S", "address2": null, "address3": null, "city": "New York", "zip_code": "10003", "country": "US", "state": "NY", "display_address": ["201 Park Ave S", "New York, NY 10003"]}, "phone": "+19175345958", "display_phone": "(917) 534-5958", "distance": 3493.0427099809303}, {"id": "A0md41L-3S4CuHPqDWJWUw", "alias": "mr-taco-new-york", "name": "Mr Taco", "image_url": "https://s3-media3.fl.yelpcdn.com/bphoto/EXDYph-n7dNv0YEsGIg-hg/o.jpg", "is_closed": false, "url": "https://www.yelp.com/biz/mr-taco-new-york?adjust_creative=ziguwByJV8X440VdHu1QZw&utm_campaign=yelp_api_v3&utm_medium=api_v3_business_search&utm_source=ziguwByJV8X440VdHu1QZw", "review_count": 24, "categories": [{"alias": "tacos", "title": "Tacos"}], "rating": 4.5, "coordinates": {"latitude": 40.72254, "longitude": -73.99239}, "transactions": ["delivery", "pickup"], "location": {"address1": "11 Stanton St", "address2": null, "address3": "", "city": "New York", "zip_code": "10002", "country": "US", "state": "NY", "display_address": ["11 Stanton St", "New York, NY 10002"]}, "phone": "+16468580223", "display_phone": "(646) 858-0223", "distance": 1896.7611948720162}, {"id": "MfbVI5reXLIIs8Cc2HwgQw", "alias": "breakroom-new-york", "name": "Breakroom", "image_url": "https://s3-media2.fl.yelpcdn.com/bphoto/l-b4gVi5G7xOBQ60QdctVA/o.jpg", "is_closed": false, "url": "https://www.yelp.com/biz/breakroom-new-york?adjust_creative=ziguwByJV8X440VdHu1QZw&utm_campaign=yelp_api_v3&utm_medium=api_v3_business_search&utm_source=ziguwByJV8X440VdHu1QZw", "review_count": 1439, "categories": [{"alias": "burgers", "title": "Burgers"}, {"alias": "tacos", "title": "Tacos"}], "rating": 4.5, "coordinates": {"latitude": 40.7166907225542, "longitude": -73.9999440120647}, "transactions": ["delivery", "pickup"], "price": "$", "location": {"address1": "83 Baxter St", "address2": "", "address3": "", "city": "New York", "zip_code": "10013", "country": "US", "state": "NY", "display_address": ["83 Baxter St", "New York, NY 10013"]}, "phone": "+12122272802", "display_phone": "(212) 227-2802", "distance": 1338.114942586202}, {"id": "L3REPLCvQpMapYPd_fkS-A", "alias": "los-mariscos-new-york", "name": "Los Mariscos", "image_url": "https://s3-media1.fl.yelpcdn.com/bphoto/miAqlvuZ-SEdViMIAbHkeQ/o.jpg", "is_closed": false, "url": "https://www.yelp.com/biz/los-mariscos-new-york?adjust_creative=ziguwByJV8X440VdHu1QZw&utm_campaign=yelp_api_v3&utm_medium=api_v3_business_search&utm_source=ziguwByJV8X440VdHu1QZw", "review_count": 432, "categories": [{"alias": "seafood", "title": "Seafood"}, {"alias": "tacos", "title": "Tacos"}], "rating": 4.5, "coordinates": {"latitude": 40.74207, "longitude": -74.00565}, "transactions": [], "price": "$", "location": {"address1": "409 W 15th St", "address2": "", "address3": null, "city": "New York", "zip_code": "10011", "country": "US", "state": "NY", "display_address": ["409 W 15th St", "New York, NY 10011"]}, "phone": "+12129204986", "display_phone": "(212) 920-4986", "distance": 4183.62631647822}, {"id": "-fRgp3gv0-R6y9YOJX8ZVA", "alias": "warude-brooklyn", "name": "Warude", "image_url": "https://s3-media1.fl.yelpcdn.com/bphoto/4wCnpWjE_aTC9cyBQ9_ZxQ/o.jpg", "is_closed": false, "url": "https://www.yelp.com/biz/warude-brooklyn?adjust_creative=ziguwByJV8X440VdHu1QZw&utm_campaign=yelp_api_v3&utm_medium=api_v3_business_search&utm_source=ziguwByJV8X440VdHu1QZw", "review_count": 38, "categories": [{"alias": "japanese", "title": "Japanese"}, {"alias": "tacos", "title": "Tacos"}], "rating": 4.0, "coordinates": {"latitude": 40.6846262, "longitude": -73.9440354}, "transactions": ["delivery", "pickup"], "location": {"address1": "385 Tompkins Ave", "address2": "", "address3": null, "city": "Brooklyn", "zip_code": "11216", "country": "US", "state": "NY", "display_address": ["385 Tompkins Ave", "Brooklyn, NY 11216"]}, "phone": "+17186844449", "display_phone": "(718) 684-4449", "distance": 4828.222184259744}, {"id": "Ko95LRE9AAvb2Lk9Iwh2-Q", "alias": "ottos-tacos-new-york", "name": "Otto's Tacos", "image_url": "https://s3-media4.fl.yelpcdn.com/bphoto/tWP164FDiRaebo3UWh-xjw/o.jpg", "is_closed": false, "url": "https://www.yelp.com/biz/ottos-tacos-new-york?adjust_creative=ziguwByJV8X440VdHu1QZw&utm_campaign=yelp_api_v3&utm_medium=api_v3_business_search&utm_source=ziguwByJV8X440VdHu1QZw", "review_count": 698, "categories": [{"alias": "tacos", "title": "Tacos"}], "rating": 4.0, "coordinates": {"latitude": 40.72914, "longitude": -73.9874899}, "transactions": [], "price": "$", "location": {"address1": "141 2nd Ave", "address2": null, "address3": "", "city": "New York", "zip_code": "10003", "country": "US", "state": "NY", "display_address": ["141 2nd Ave", "New York, NY 10003"]}, "phone": "+16466784018", "display_phone": "(646) 678-4018", "distance": 2694.0991683577367}, {"id": "Wm6vj0ekRAzZnaeaBEkOag", "alias": "taqueria-downtown-jersey-city", "name": "Taqueria Downtown", "image_url": "https://s3-media2.fl.yelpcdn.com/bphoto/9OJZv2F5qKAc-TGTZpafjg/o.jpg", "is_closed": false, "url": "https://www.yelp.com/biz/taqueria-downtown-jersey-city?adjust_creative=ziguwByJV8X440VdHu1QZw&utm_campaign=yelp_api_v3&utm_medium=api_v3_business_search&utm_source=ziguwByJV8X440VdHu1QZw", "review_count": 1581, "categories": [{"alias": "mexican", "title": "Mexican"}, {"alias": "bars", "title": "Bars"}], "rating": 4.0, "coordinates": {"latitude": 40.7162, "longitude": -74.04451}, "transactions": ["delivery", "pickup"], "price": "$", "location": {"address1": "236 Grove St", "address2": "", "address3": "", "city": "Jersey City", "zip_code": "07302", "country": "US", "state": "NJ", "display_address": ["236 Grove St", "Jersey City, NJ 07302"]}, "phone": "+12013333220", "display_phone": "(201) 333-3220", "distance": 4408.236008366407}, {"id": "_M5FVY4hkcuU-ASdVZPfRQ", "alias": "tacos-el-bronco-brooklyn-2", "name": "Tacos El Bronco", "image_url": "https://s3-media1.fl.yelpcdn.com/bphoto/F9hv9aUT37cI4HbZfxxbDA/o.jpg", "is_closed": false, "url": "https://www.yelp.com/biz/tacos-el-bronco-brooklyn-2?adjust_creative=ziguwByJV8X440VdHu1QZw&utm_campaign=yelp_api_v3&utm_medium=api_v3_business_search&utm_source=ziguwByJV8X440VdHu1QZw", "review_count": 500, "categories": [{"alias": "mexican", "title": "Mexican"}, {"alias": "seafood", "title": "Seafood"}, {"alias": "cocktailbars", "title": "Cocktail Bars"}], "rating": 4.0, "coordinates": {"latitude": 40.65006, "longitude": -74.00915}, "transactions": [], "price": "$", "location": {"address1": "4324 4th Ave", "address2": "", "address3": "", "city": "Brooklyn", "zip_code": "11220", "country": "US", "state": "NY", "display_address": ["4324 4th Ave", "Brooklyn, NY 11220"]}, "phone": "+17187882229", "display_phone": "(718) 788-2229", "distance": 6282.52410458184}, {"id": "ykTNq1F-Vpfw4i4xGhPS0Q", "alias": "the-little-taco-house-new-york", "name": "The Little Taco House", "image_url": "https://s3-media2.fl.yelpcdn.com/bphoto/ArZGBC-D37qDjCddNoSGYw/o.jpg", "is_closed": false, "url": "https://www.yelp.com/biz/the-little-taco-house-new-york?adjust_creative=ziguwByJV8X440VdHu1QZw&utm_campaign=yelp_api_v3&utm_medium=api_v3_business_search&utm_source=ziguwByJV8X440VdHu1QZw", "review_count": 19, "categories": [{"alias": "mexican", "title": "Mexican"}], "rating": 4.5, "coordinates": {"latitude": 40.73475, "longitude": -74.00321}, "transactions": [], "location": {"address1": "246 West 4th St", "address2": "", "address3": null, "city": "New York", "zip_code": "10014", "country": "US", "state": "NY", "display_address": ["246 West 4th St", "New York, NY 10014"]}, "phone": "+16467191600", "display_phone": "(646) 719-1600", "distance": 3341.89559209896}, {"id": "SCQvI5pAJmD-OMm37kkS6Q", "alias": "dorado-tacos-and-quesadillas-new-york", "name": "DORADO Tacos & Quesadillas", "image_url": "https://s3-media4.fl.yelpcdn.com/bphoto/8kRPZOWRKnrjOBPV5VERQQ/o.jpg", "is_closed": false, "url": "https://www.yelp.com/biz/dorado-tacos-and-quesadillas-new-york?adjust_creative=ziguwByJV8X440VdHu1QZw&utm_campaign=yelp_api_v3&utm_medium=api_v3_business_search&utm_source=ziguwByJV8X440VdHu1QZw", "review_count": 580, "categories": [{"alias": "mexican", "title": "Mexican"}, {"alias": "gluten_free", "title": "Gluten-Free"}], "rating": 4.0, "coordinates": {"latitude": 40.73396, "longitude": -73.99312}, "transactions": ["pickup"], "price": "$", "location": {"address1": "28 E 12th St", "address2": "", "address3": "", "city": "New York", "zip_code": "10003", "country": "US", "state": "NY", "display_address": ["28 E 12th St", "New York, NY 10003"]}, "phone": "+12126270900", "display_phone": "(212) 627-0900", "distance": 3169.280488605312}, {"id": "YiLd_wrSOqs0b1F5vb80mA", "alias": "cantina-bella-new-york-2", "name": "Cantina Bella", "image_url": "https://s3-media3.fl.yelpcdn.com/bphoto/APl2Qc-6gUva04xxM68XHw/o.jpg", "is_closed": false, "url": "https://www.yelp.com/biz/cantina-bella-new-york-2?adjust_creative=ziguwByJV8X440VdHu1QZw&utm_campaign=yelp_api_v3&utm_medium=api_v3_business_search&utm_source=ziguwByJV8X440VdHu1QZw", "review_count": 6, "categories": [{"alias": "tacos", "title": "Tacos"}, {"alias": "cocktailbars", "title": "Cocktail Bars"}], "rating": 5.0, "coordinates": {"latitude": 40.74639, "longitude": -73.98838}, "transactions": [], "location": {"address1": "1204 Broadway", "address2": "", "address3": null, "city": "New York", "zip_code": "10001", "country": "US", "state": "NY", "display_address": ["1204 Broadway", "New York, NY 10001"]}, "phone": "+12122019276", "display_phone": "(212) 201-9276", "distance": 4573.164284925793}, {"id": "iK2jJQA72XRjf4nUD3cAnA", "alias": "tortilleria-mexicana-los-hermanos-brooklyn-2", "name": "Tortilleria Mexicana Los Hermanos", "image_url": "https://s3-media1.fl.yelpcdn.com/bphoto/zxJpq32opF34eOrZs9cGbA/o.jpg", "is_closed": false, "url": "https://www.yelp.com/biz/tortilleria-mexicana-los-hermanos-brooklyn-2?adjust_creative=ziguwByJV8X440VdHu1QZw&utm_campaign=yelp_api_v3&utm_medium=api_v3_business_search&utm_source=ziguwByJV8X440VdHu1QZw", "review_count": 662, "categories": [{"alias": "mexican", "title": "Mexican"}], "rating": 4.0, "coordinates": {"latitude": 40.7066299, "longitude": -73.92198}, "transactions": [], "price": "$", "location": {"address1": "271 Starr St", "address2": "", "address3": "", "city": "Brooklyn", "zip_code": "11237", "country": "US", "state": "NY", "display_address": ["271 Starr St", "Brooklyn, NY 11237"]}, "phone": "+17184563422", "display_phone": "(718) 456-3422", "distance": 6103.0701535331}, {"id": "SUVMcqAwPHhcRMtfv_djRQ", "alias": "varrio-408-brooklyn", "name": "Varrio 408", "image_url": "https://s3-media3.fl.yelpcdn.com/bphoto/XPXE6c4VEZTqhbp7rS1Ggg/o.jpg", "is_closed": false, "url": "https://www.yelp.com/biz/varrio-408-brooklyn?adjust_creative=ziguwByJV8X440VdHu1QZw&utm_campaign=yelp_api_v3&utm_medium=api_v3_business_search&utm_source=ziguwByJV8X440VdHu1QZw", "review_count": 319, "categories": [{"alias": "mexican", "title": "Mexican"}], "rating": 4.5, "coordinates": {"latitude": 40.670226, "longitude": -73.9857509}, "transactions": ["delivery", "pickup"], "price": "$", "location": {"address1": "412 5th Ave", "address2": "", "address3": "", "city": "Brooklyn", "zip_code": "11215", "country": "US", "state": "NY", "display_address": ["412 5th Ave", "Brooklyn, NY 11215"]}, "phone": "+17183984300", "display_phone": "(718) 398-4300", "distance": 3981.837872079864}, {"id": "ifGXrRqs-zp6ek7LsoozrQ", "alias": "taqueria-diana-new-york", "name": "Taqueria Diana", "image_url": "https://s3-media1.fl.yelpcdn.com/bphoto/z9h_3wBGKWbLsT4E4PaMVQ/o.jpg", "is_closed": false, "url": "https://www.yelp.com/biz/taqueria-diana-new-york?adjust_creative=ziguwByJV8X440VdHu1QZw&utm_campaign=yelp_api_v3&utm_medium=api_v3_business_search&utm_source=ziguwByJV8X440VdHu1QZw", "review_count": 678, "categories": [{"alias": "mexican", "title": "Mexican"}], "rating": 4.0, "coordinates": {"latitude": 40.7284337609976, "longitude": -73.9879844318771}, "transactions": ["delivery", "pickup"], "price": "$", "location": {"address1": "129 2nd Ave", "address2": null, "address3": "", "city": "New York", "zip_code": "10003", "country": "US", "state": "NY", "display_address": ["129 2nd Ave", "New York, NY 10003"]}, "phone": "+16464227871", "display_phone": "(646) 422-7871", "distance": 2610.9569686957734}, {"id": "zscLFr_wQUmSRGkup2YjpA", "alias": "mexicue-new-york-13", "name": "Mexicue", "image_url": "https://s3-media3.fl.yelpcdn.com/bphoto/dpumWWHHQS11ip4ZFfR08w/o.jpg", "is_closed": false, "url": "https://www.yelp.com/biz/mexicue-new-york-13?adjust_creative=ziguwByJV8X440VdHu1QZw&utm_campaign=yelp_api_v3&utm_medium=api_v3_business_search&utm_source=ziguwByJV8X440VdHu1QZw", "review_count": 16, "categories": [{"alias": "mexican", "title": "Mexican"}, {"alias": "breakfast_brunch", "title": "Breakfast & Brunch"}, {"alias": "cocktailbars", "title": "Cocktail Bars"}], "rating": 4.5, "coordinates": {"latitude": 40.77536, "longitude": -73.95628}, "transactions": ["restaurant_reservation"], "location": {"address1": "1429 3rd Ave", "address2": "", "address3": null, "city": "New York", "zip_code": "10028", "country": "US", "state": "NY", "display_address": ["1429 3rd Ave", "New York, NY 10028"]}, "phone": "+12129884700", "display_phone": "(212) 988-4700", "distance": 8407.859998174978}, {"id": "8_NilECM6qg_L7WYb25uNw", "alias": "luchadores-new-york", "name": "Luchadores", "image_url": "https://s3-media4.fl.yelpcdn.com/bphoto/4f8SsJIJzgtI_HfCaSaAyQ/o.jpg", "is_closed": false, "url": "https://www.yelp.com/biz/luchadores-new-york?adjust_creative=ziguwByJV8X440VdHu1QZw&utm_campaign=yelp_api_v3&utm_medium=api_v3_business_search&utm_source=ziguwByJV8X440VdHu1QZw", "review_count": 20, "categories": [{"alias": "mexican", "title": "Mexican"}], "rating": 4.5, "coordinates": {"latitude": 40.70582, "longitude": -74.00411}, "transactions": ["delivery", "pickup"], "location": {"address1": "87 South St", "address2": "", "address3": null, "city": "New York", "zip_code": "10038", "country": "US", "state": "NY", "display_address": ["87 South St", "New York, NY 10038"]}, "phone": "+19174093033", "display_phone": "(917) 409-3033", "distance": 832.4915733862251}, {"id": "iw5iI-jFXnDZaeiGt4Weaw", "alias": "twisted-mexican-grill-astoria", "name": "Twisted Mexican Grill", "image_url": "https://s3-media1.fl.yelpcdn.com/bphoto/_R1UvX8sKbNWFUS77Z483g/o.jpg", "is_closed": false, "url": "https://www.yelp.com/biz/twisted-mexican-grill-astoria?adjust_creative=ziguwByJV8X440VdHu1QZw&utm_campaign=yelp_api_v3&utm_medium=api_v3_business_search&utm_source=ziguwByJV8X440VdHu1QZw", "review_count": 32, "categories": [{"alias": "mexican", "title": "Mexican"}], "rating": 4.5, "coordinates": {"latitude": 40.772422, "longitude": -73.9264379}, "transactions": ["delivery", "pickup"], "price": "$", "location": {"address1": "18-33 Astoria Blvd", "address2": "", "address3": null, "city": "Astoria", "zip_code": "11102", "country": "US", "state": "NY", "display_address": ["18-33 Astoria Blvd", "Astoria, NY 11102"]}, "phone": "", "display_phone": "", "distance": 9388.733401951959}, {"id": "6Ct7OeTRn4caY9g0swFBsw", "alias": "la-contenta-new-york", "name": "La Contenta", "image_url": "https://s3-media2.fl.yelpcdn.com/bphoto/FwZAyPgdKdPGQ8aAGKh3-w/o.jpg", "is_closed": false, "url": "https://www.yelp.com/biz/la-contenta-new-york?adjust_creative=ziguwByJV8X440VdHu1QZw&utm_campaign=yelp_api_v3&utm_medium=api_v3_business_search&utm_source=ziguwByJV8X440VdHu1QZw", "review_count": 646, "categories": [{"alias": "mexican", "title": "Mexican"}, {"alias": "bars", "title": "Bars"}, {"alias": "breakfast_brunch", "title": "Breakfast & Brunch"}], "rating": 4.5, "coordinates": {"latitude": 40.71873, "longitude": -73.98691}, "transactions": ["delivery", "pickup"], "price": "$$", "location": {"address1": "102 Norfolk St", "address2": "", "address3": "", "city": "New York", "zip_code": "10002", "country": "US", "state": "NY", "display_address": ["102 Norfolk St", "New York, NY 10002"]}, "phone": "+12124324180", "display_phone": "(212) 432-4180", "distance": 1602.3725010220583}], "total": 5800, "region": {"center": {"longitude": -73.99429321289062, "latitude": 40.70544486444615}}}, "Chinese food+cleveland": {"businesses": [{"id": "GDpd9KZdUgnjcoCWTTphqw", "alias": "szechuan-gourmet-cleveland", "name": "Szechuan Gourmet", "image_url": "https://s3-media2.fl.yelpcdn.com/bphoto/Gyy-LOPGOskb3xQ5tvuTnw/o.jpg", "is_closed": false, "url": "https://www.yelp.com/biz/szechuan-gourmet-cleveland?adjust_creative=ziguwByJV8X440VdHu1QZw&utm_campaign=yelp_api_v3&utm_medium=api_v3_business_search&utm_source=ziguwByJV8X440VdHu1QZw", "review_count": 180, "categories": [{"alias": "szechuan", "title": "Szechuan"}], "rating": 4.5, "coordinates": {"latitude": 41.508505, "longitude": -81.663319}, "transactions": [], "price": "$$", "location": {"address1": "1735 E 36th St", "address2": "", "address3": "", "city": "Cleveland", "zip_code": "44114", "country": "US", "state": "OH", "display_address": ["1735 E 36th St", "Cleveland, OH 44114"]}, "phone": "+12168819688", "display_phone": "(216) 881-9688", "distance": 3973.489587322134}, {"id": "wftmt-n8OUA4Ng3bWWH5dw", "alias": "wonton-gourmet-and-bbq-cleveland", "name": "Wonton Gourmet & BBQ", "image_url": "https://s3-media2.fl.yelpcdn.com/bphoto/djhSelWcFB-wLUzH0ahceQ/o.jpg", "is_closed": false, "url": "https://www.yelp.com/biz/wonton-gourmet-and-bbq-cleveland?adjust_creative=ziguwByJV8X440VdHu1QZw&utm_campaign=yelp_api_v3&utm_medium=api_v3_business_search&utm_source=ziguwByJV8X440VdHu1QZw", "review_count": 249, "categories": [{"alias": "chinese", "title": "Chinese"}, {"alias": "bbq", "title": "Barbeque"}], "rating": 4.5, "coordinates": {"latitude": 41.5088920593262, "longitude": -81.6662826538086}, "transactions": ["pickup", "delivery"], "price": "$$", "location": {"address1": "3211 Payne Ave", "address2": "", "address3": "", "city": "Cleveland", "zip_code": "44114", "country": "US", "state": "OH", "display_address": ["3211 Payne Ave", "Cleveland, OH 44114"]}, "phone": "+12168757000", "display_phone": "(216) 875-7000", "distance": 3978.055546925977}, {"id": "Tm2dKN_-DCdZfF2xMWrX7w", "alias": "siam-cafe-cleveland", "name": "Siam Cafe", "image_url": "https://s3-media2.fl.yelpcdn.com/bphoto/XMI0b0PMzRHj3TqLagXshA/o.jpg", "is_closed": false, "url": "https://www.yelp.com/biz/siam-cafe-cleveland?adjust_creative=ziguwByJV8X440VdHu1QZw&utm_campaign=yelp_api_v3&utm_medium=api_v3_business_search&utm_source=ziguwByJV8X440VdHu1QZw", "review_count": 208, "categories": [{"alias": "asianfusion", "title": "Asian Fusion"}, {"alias": "thai", "title": "Thai"}, {"alias": "chinese", "title": "Chinese"}], "rating": 4.0, "coordinates": {"latitude": 41.516504, "longitude": -81.6649155}, "transactions": [], "price": "$$", "location": {"address1": "3951 St Clair Ave NE", "address2": "", "address3": "", "city": "Cleveland", "zip_code": "44114", "country": "US", "state": "OH", "display_address": ["3951 St Clair Ave NE", "Cleveland, OH 44114"]}, "phone": "+12163612323", "display_phone": "(216) 361-2323", "distance": 4830.864891176935}, {"id": "pGjtxXBq4tZcdKdgTU-Tww", "alias": "little-hong-kong-cleveland", "name": "Little Hong Kong", "image_url": "https://s3-media2.fl.yelpcdn.com/bphoto/cUEUmXV4QF07R5BP6KkOTQ/o.jpg", "is_closed": false, "url": "https://www.yelp.com/biz/little-hong-kong-cleveland?adjust_creative=ziguwByJV8X440VdHu1QZw&utm_campaign=yelp_api_v3&utm_medium=api_v3_business_search&utm_source=ziguwByJV8X440VdHu1QZw", "review_count": 57, "categories": [{"alias": "chinese", "title": "Chinese"}], "rating": 4.5, "coordinates": {"latitude": 41.3733999, "longitude": -81.82972}, "transactions": [], "price": "$", "location": {"address1": "18332 Bagley Rd", "address2": "", "address3": "", "city": "Cleveland", "zip_code": "44130", "country": "US", "state": "OH", "display_address": ["18332 Bagley Rd", "Cleveland, OH 44130"]}, "phone": "+14402608888", "display_phone": "(440) 260-8888", "distance": 17201.45582902461}, {"id": "ijY4C4ut4M9xg3QvK2R2pg", "alias": "li-wah-cleveland", "name": "Li Wah", "image_url": "https://s3-media2.fl.yelpcdn.com/bphoto/SAEudTSKhgwrPfEH7g_Bfw/o.jpg", "is_closed": false, "url": "https://www.yelp.com/biz/li-wah-cleveland?adjust_creative=ziguwByJV8X440VdHu1QZw&utm_campaign=yelp_api_v3&utm_medium=api_v3_business_search&utm_source=ziguwByJV8X440VdHu1QZw", "review_count": 294, "categories": [{"alias": "dimsum", "title": "Dim Sum"}, {"alias": "cantonese", "title": "Cantonese"}], "rating": 3.5, "coordinates": {"latitude": 41.5083668054267, "longitude": -81.669370655881}, "transactions": ["delivery"], "price": "$$", "location": {"address1": "2999 Payne Ave", "address2": "Ste 102", "address3": "", "city": "Cleveland", "zip_code": "44114", "country": "US", "state": "OH", "display_address": ["2999 Payne Ave", "Ste 102", "Cleveland, OH 44114"]}, "phone": "+12166966556", "display_phone": "(216) 696-6556", "distance": 3894.0472372589747}, {"id": "I2lDmQHDxnUKbEBJuJCW6w", "alias": "hunan-east-cleveland", "name": "Hunan East", "image_url": "https://s3-media3.fl.yelpcdn.com/bphoto/KMOILV0Vr5sy3zG8A58UBw/o.jpg", "is_closed": false, "url": "https://www.yelp.com/biz/hunan-east-cleveland?adjust_creative=ziguwByJV8X440VdHu1QZw&utm_campaign=yelp_api_v3&utm_medium=api_v3_business_search&utm_source=ziguwByJV8X440VdHu1QZw", "review_count": 90, "categories": [{"alias": "chinese", "title": "Chinese"}], "rating": 4.0, "coordinates": {"latitude": 41.5407985, "longitude": -81.4973389}, "transactions": [], "price": "$$", "location": {"address1": "724 Richmond Rd", "address2": "", "address3": "", "city": "Cleveland", "zip_code": "44143", "country": "US", "state": "OH", "display_address": ["724 Richmond Rd", "Cleveland, OH 44143"]}, "phone": "+12163812266", "display_phone": "(216) 381-2266", "distance": 16355.161271631096}, {"id": "uuQDpnCYn1Nf2pXZTtMLHg", "alias": "new-china-king-lakewood", "name": "New China King", "image_url": "https://s3-media1.fl.yelpcdn.com/bphoto/bJN6CwVYc1J7vVrCE3Pjhg/o.jpg", "is_closed": false, "url": "https://www.yelp.com/biz/new-china-king-lakewood?adjust_creative=ziguwByJV8X440VdHu1QZw&utm_campaign=yelp_api_v3&utm_medium=api_v3_business_search&utm_source=ziguwByJV8X440VdHu1QZw", "review_count": 59, "categories": [{"alias": "chinese", "title": "Chinese"}], "rating": 4.0, "coordinates": {"latitude": 41.47777, "longitude": -81.81117}, "transactions": [], "price": "$", "location": {"address1": "16210 Madison Ave", "address2": "", "address3": "", "city": "Lakewood", "zip_code": "44107", "country": "US", "state": "OH", "display_address": ["16210 Madison Ave", "Lakewood, OH 44107"]}, "phone": "+12162268000", "display_phone": "(216) 226-8000", "distance": 11585.8977756143}, {"id": "4v_RbefzvGkixXXJkn-bzw", "alias": "szechwan-garden-lakewood-2", "name": "Szechwan Garden", "image_url": "https://s3-media3.fl.yelpcdn.com/bphoto/pX1M9nS5QLuQQeH9kq13Cw/o.jpg", "is_closed": false, "url": "https://www.yelp.com/biz/szechwan-garden-lakewood-2?adjust_creative=ziguwByJV8X440VdHu1QZw&utm_campaign=yelp_api_v3&utm_medium=api_v3_business_search&utm_source=ziguwByJV8X440VdHu1QZw", "review_count": 64, "categories": [{"alias": "asianfusion", "title": "Asian Fusion"}, {"alias": "szechuan", "title": "Szechuan"}], "rating": 4.0, "coordinates": {"latitude": 41.48559, "longitude": -81.78789}, "transactions": [], "price": "$$", "location": {"address1": "13800 Detroit Ave", "address2": "", "address3": "", "city": "Lakewood", "zip_code": "44107", "country": "US", "state": "OH", "display_address": ["13800 Detroit Ave", "Lakewood, OH 44107"]}, "phone": "+12162261987", "display_phone": "(216) 226-1987", "distance": 9720.73158974192}, {"id": "cXmlv2WBzuB6JLMhaCvLuQ", "alias": "han-chinese-kabob-and-grill-cleveland", "name": "Han Chinese Kabob & Grill", "image_url": "https://s3-media1.fl.yelpcdn.com/bphoto/VyiwVxhmCI6sWcqgqm1mhA/o.jpg", "is_closed": false, "url": "https://www.yelp.com/biz/han-chinese-kabob-and-grill-cleveland?adjust_creative=ziguwByJV8X440VdHu1QZw&utm_campaign=yelp_api_v3&utm_medium=api_v3_business_search&utm_source=ziguwByJV8X440VdHu1QZw", "review_count": 90, "categories": [{"alias": "chinese", "title": "Chinese"}, {"alias": "soup", "title": "Soup"}, {"alias": "kebab", "title": "Kebab"}], "rating": 4.0, "coordinates": {"latitude": 41.5095, "longitude": -81.66247}, "transactions": [], "price": "$$", "location": {"address1": "3710 Payne Ave", "address2": "Ste 110", "address3": "", "city": "Cleveland", "zip_code": "44114", "country": "US", "state": "OH", "display_address": ["3710 Payne Ave", "Ste 110", "Cleveland, OH 44114"]}, "phone": "+12167698745", "display_phone": "(216) 769-8745", "distance": 4081.2795480146906}, {"id": "97V91GSG-OQvrvOc9GXoGA", "alias": "phusion-cafe-cleveland", "name": "Phusion Cafe", "image_url": "https://s3-media3.fl.yelpcdn.com/bphoto/7O6SD4-K2z5yiTsidMvOAw/o.jpg", "is_closed": false, "url": "https://www.yelp.com/biz/phusion-cafe-cleveland?adjust_creative=ziguwByJV8X440VdHu1QZw&utm_campaign=yelp_api_v3&utm_medium=api_v3_business_search&utm_source=ziguwByJV8X440VdHu1QZw", "review_count": 142, "categories": [{"alias": "taiwanese", "title": "Taiwanese"}, {"alias": "chinese", "title": "Chinese"}, {"alias": "asianfusion", "title": "Asian Fusion"}], "rating": 4.0, "coordinates": {"latitude": 41.51056, "longitude": -81.6698}, "transactions": ["pickup", "delivery"], "price": "$", "location": {"address1": "3030 Superior Ave", "address2": "", "address3": "", "city": "Cleveland", "zip_code": "44114", "country": "US", "state": "OH", "display_address": ["3030 Superior Ave", "Cleveland, OH 44114"]}, "phone": "+12168613399", "display_phone": "(216) 861-3399", "distance": 4127.849574573042}, {"id": "a58P2BPCCbQgDMbEoLfWzg", "alias": "emperors-palace-cleveland", "name": "Emperor's Palace", "image_url": "https://s3-media4.fl.yelpcdn.com/bphoto/N2rNS9iA95vjLdRQVUaf7w/o.jpg", "is_closed": false, "url": "https://www.yelp.com/biz/emperors-palace-cleveland?adjust_creative=ziguwByJV8X440VdHu1QZw&utm_campaign=yelp_api_v3&utm_medium=api_v3_business_search&utm_source=ziguwByJV8X440VdHu1QZw", "review_count": 120, "categories": [{"alias": "dimsum", "title": "Dim Sum"}, {"alias": "cantonese", "title": "Cantonese"}], "rating": 3.5, "coordinates": {"latitude": 41.508385, "longitude": -81.678449}, "transactions": ["pickup", "delivery"], "price": "$$", "location": {"address1": "2136 Rockwell Ave", "address2": "", "address3": "", "city": "Cleveland", "zip_code": "44114", "country": "US", "state": "OH", "display_address": ["2136 Rockwell Ave", "Cleveland, OH 44114"]}, "phone": "+12168619999", "display_phone": "(216) 861-9999", "distance": 3920.9869071941143}, {"id": "h0Wmyzb8q0bXbrqmWqVvfQ", "alias": "jackie-chens-dragon-towers-chinese-restaurant-cleveland", "name": "Jackie Chen's Dragon Towers Chinese Restaurant", "image_url": "https://s3-media3.fl.yelpcdn.com/bphoto/aE3XrUGduWBb-4KQw8NglQ/o.jpg", "is_closed": false, "url": "https://www.yelp.com/biz/jackie-chens-dragon-towers-chinese-restaurant-cleveland?adjust_creative=ziguwByJV8X440VdHu1QZw&utm_campaign=yelp_api_v3&utm_medium=api_v3_business_search&utm_source=ziguwByJV8X440VdHu1QZw", "review_count": 55, "categories": [{"alias": "chinese", "title": "Chinese"}], "rating": 4.0, "coordinates": {"latitude": 41.4501449, "longitude": -81.8187626}, "transactions": [], "price": "$$", "location": {"address1": "17452 Lorain Ave", "address2": "", "address3": "", "city": "Cleveland", "zip_code": "44111", "country": "US", "state": "OH", "display_address": ["17452 Lorain Ave", "Cleveland, OH 44111"]}, "phone": "+12162516696", "display_phone": "(216) 251-6696", "distance": 12449.021201250349}, {"id": "tZpxk604kWWHsJKyirraZg", "alias": "lj-shanghai-cleveland", "name": "LJ Shanghai", "image_url": "https://s3-media2.fl.yelpcdn.com/bphoto/FiFHWZggidYPYwfml3uxiA/o.jpg", "is_closed": false, "url": "https://www.yelp.com/biz/lj-shanghai-cleveland?adjust_creative=ziguwByJV8X440VdHu1QZw&utm_campaign=yelp_api_v3&utm_medium=api_v3_business_search&utm_source=ziguwByJV8X440VdHu1QZw", "review_count": 158, "categories": [{"alias": "shanghainese", "title": "Shanghainese"}], "rating": 4.0, "coordinates": {"latitude": 41.5110026135085, "longitude": -81.668807345474}, "transactions": [], "price": "$", "location": {"address1": "3142 Superior Ave", "address2": "", "address3": null, "city": "Cleveland", "zip_code": "44114", "country": "US", "state": "OH", "display_address": ["3142 Superior Ave", "Cleveland, OH 44114"]}, "phone": "+12164006936", "display_phone": "(216) 400-6936", "distance": 4189.631215269247}, {"id": "BCga5CbMqcZLCpxAuln57w", "alias": "panda-wok-asian-cuisine-lakewood", "name": "Panda Wok Asian Cuisine", "image_url": "https://s3-media4.fl.yelpcdn.com/bphoto/OE8OnDXuuNniYWlwaPqRtg/o.jpg", "is_closed": false, "url": "https://www.yelp.com/biz/panda-wok-asian-cuisine-lakewood?adjust_creative=ziguwByJV8X440VdHu1QZw&utm_campaign=yelp_api_v3&utm_medium=api_v3_business_search&utm_source=ziguwByJV8X440VdHu1QZw", "review_count": 83, "categories": [{"alias": "chinese", "title": "Chinese"}, {"alias": "asianfusion", "title": "Asian Fusion"}, {"alias": "sushi", "title": "Sushi Bars"}], "rating": 4.0, "coordinates": {"latitude": 41.480965, "longitude": -81.769484}, "transactions": ["pickup", "delivery"], "price": "$$", "location": {"address1": "1512 W 117th St", "address2": "", "address3": "", "city": "Lakewood", "zip_code": "44107", "country": "US", "state": "OH", "display_address": ["1512 W 117th St", "Lakewood, OH 44107"]}, "phone": "+12165211200", "display_phone": "(216) 521-1200", "distance": 8134.455717357003}, {"id": "Zs8LPufciU-jDpbAVFqKcA", "alias": "china-gate-south-euclid", "name": "China Gate", "image_url": "https://s3-media3.fl.yelpcdn.com/bphoto/kyOxsijtNmp41U3Lf0S7nw/o.jpg", "is_closed": false, "url": "https://www.yelp.com/biz/china-gate-south-euclid?adjust_creative=ziguwByJV8X440VdHu1QZw&utm_campaign=yelp_api_v3&utm_medium=api_v3_business_search&utm_source=ziguwByJV8X440VdHu1QZw", "review_count": 66, "categories": [{"alias": "chinese", "title": "Chinese"}], "rating": 4.0, "coordinates": {"latitude": 41.5024063, "longitude": -81.5391659}, "transactions": [], "price": "$", "location": {"address1": "13919 Cedar Rd", "address2": "", "address3": "", "city": "South Euclid", "zip_code": "44118", "country": "US", "state": "OH", "display_address": ["13919 Cedar Rd", "South Euclid, OH 44118"]}, "phone": "+12169322924", "display_phone": "(216) 932-2924", "distance": 11553.480674764585}, {"id": "-_DxZ8gKU50sfuZEu4ypKg", "alias": "saigon-restaurant-and-bar-cleveland", "name": "Saigon Restaurant and Bar", "image_url": "https://s3-media1.fl.yelpcdn.com/bphoto/aA3lsrraGZv0VQHF0BF87A/o.jpg", "is_closed": false, "url": "https://www.yelp.com/biz/saigon-restaurant-and-bar-cleveland?adjust_creative=ziguwByJV8X440VdHu1QZw&utm_campaign=yelp_api_v3&utm_medium=api_v3_business_search&utm_source=ziguwByJV8X440VdHu1QZw", "review_count": 198, "categories": [{"alias": "vietnamese", "title": "Vietnamese"}, {"alias": "chinese", "title": "Chinese"}, {"alias": "thai", "title": "Thai"}], "rating": 4.0, "coordinates": {"latitude": 41.4989085, "longitude": -81.6899104}, "transactions": [], "price": "$$", "location": {"address1": "2061 E 4th St", "address2": "", "address3": "", "city": "Cleveland", "zip_code": "44115", "country": "US", "state": "OH", "display_address": ["2061 E 4th St", "Cleveland, OH 44115"]}, "phone": "+12163442020", "display_phone": "(216) 344-2020", "distance": 3177.3574735057555}, {"id": "i5A6Bb9SpaYb3_Yr40Pk2g", "alias": "taste-of-china-cleveland", "name": "Taste of China", "image_url": "https://s3-media3.fl.yelpcdn.com/bphoto/4lvlkDlknaOjE72JtkciyA/o.jpg", "is_closed": false, "url": "https://www.yelp.com/biz/taste-of-china-cleveland?adjust_creative=ziguwByJV8X440VdHu1QZw&utm_campaign=yelp_api_v3&utm_medium=api_v3_business_search&utm_source=ziguwByJV8X440VdHu1QZw", "review_count": 21, "categories": [{"alias": "chinese", "title": "Chinese"}], "rating": 4.0, "coordinates": {"latitude": 41.5528749, "longitude": -81.4983051}, "transactions": [], "price": "$$", "location": {"address1": "25995 Highland Rd", "address2": "", "address3": "", "city": "Cleveland", "zip_code": "44143", "country": "US", "state": "OH", "display_address": ["25995 Highland Rd", "Cleveland, OH 44143"]}, "phone": "+12164040888", "display_phone": "(216) 404-0888", "distance": 17007.63322625396}, {"id": "Pawavw9U8rjxWVPU-RB7LA", "alias": "richie-chans-chinese-restaurant-cleveland", "name": "Richie Chan's Chinese Restaurant", "image_url": "https://s3-media4.fl.yelpcdn.com/bphoto/aj7sOMn3B1A8o6Ya4P6fig/o.jpg", "is_closed": false, "url": "https://www.yelp.com/biz/richie-chans-chinese-restaurant-cleveland?adjust_creative=ziguwByJV8X440VdHu1QZw&utm_campaign=yelp_api_v3&utm_medium=api_v3_business_search&utm_source=ziguwByJV8X440VdHu1QZw", "review_count": 33, "categories": [{"alias": "chinese", "title": "Chinese"}], "rating": 4.0, "coordinates": {"latitude": 41.5013749, "longitude": -81.56623}, "transactions": [], "price": "$", "location": {"address1": "13181 Cedar Rd", "address2": "", "address3": "", "city": "Cleveland", "zip_code": "44118", "country": "US", "state": "OH", "display_address": ["13181 Cedar Rd", "Cleveland, OH 44118"]}, "phone": "+12169328900", "display_phone": "(216) 932-8900", "distance": 9391.985197631298}, {"id": "PhNdyQTtZjOQ1bqoT4S3oA", "alias": "china-bay-cleveland", "name": "China Bay", "image_url": "https://s3-media3.fl.yelpcdn.com/bphoto/oLL4MaN0Tb3qDn1LXiK3xg/o.jpg", "is_closed": false, "url": "https://www.yelp.com/biz/china-bay-cleveland?adjust_creative=ziguwByJV8X440VdHu1QZw&utm_campaign=yelp_api_v3&utm_medium=api_v3_business_search&utm_source=ziguwByJV8X440VdHu1QZw", "review_count": 27, "categories": [{"alias": "cantonese", "title": "Cantonese"}, {"alias": "szechuan", "title": "Szechuan"}], "rating": 3.5, "coordinates": {"latitude": 41.431217, "longitude": -81.7332203}, "transactions": [], "price": "$", "location": {"address1": "6820 Biddulph Rd", "address2": null, "address3": null, "city": "Cleveland", "zip_code": "44144", "country": "US", "state": "OH", "display_address": ["6820 Biddulph Rd", "Cleveland, OH 44144"]}, "phone": "+12164592222", "display_phone": "(216) 459-2222", "distance": 6909.749389496749}, {"id": "x8dRsP9mpI2FD6vazC990A", "alias": "zen-cuisine-cleveland", "name": "Zen Cuisine", "image_url": "https://s3-media1.fl.yelpcdn.com/bphoto/YfYa2KoBLcar7VPp7jJ7Zg/o.jpg", "is_closed": false, "url": "https://www.yelp.com/biz/zen-cuisine-cleveland?adjust_creative=ziguwByJV8X440VdHu1QZw&utm_campaign=yelp_api_v3&utm_medium=api_v3_business_search&utm_source=ziguwByJV8X440VdHu1QZw", "review_count": 21, "categories": [{"alias": "cantonese", "title": "Cantonese"}, {"alias": "asianfusion", "title": "Asian Fusion"}], "rating": 4.5, "coordinates": {"latitude": 41.49994, "longitude": -81.69035}, "transactions": [], "price": "$", "location": {"address1": "401 Euclid Ave", "address2": null, "address3": null, "city": "Cleveland", "zip_code": "44114", "country": "US", "state": "OH", "display_address": ["401 Euclid Ave", "Cleveland, OH 44114"]}, "phone": "", "display_phone": "", "distance": 3307.093547454305}], "total": 389, "region": {"center": {"longitude": -81.67236328125, "latitude": 41.47341857719741}}}, "french food+Cleveland": {"businesses": [{"id": "SzcCJJmreMlWCsNjupdVAA", "alias": "l-albatros-cleveland", "name": "L'Albatros", "image_url": "https://s3-media4.fl.yelpcdn.com/bphoto/QpVBtp_nqMbkW46wgyI31Q/o.jpg", "is_closed": false, "url": "https://www.yelp.com/biz/l-albatros-cleveland?adjust_creative=ziguwByJV8X440VdHu1QZw&utm_campaign=yelp_api_v3&utm_medium=api_v3_business_search&utm_source=ziguwByJV8X440VdHu1QZw", "review_count": 621, "categories": [{"alias": "french", "title": "French"}], "rating": 4.5, "coordinates": {"latitude": 41.5117439550152, "longitude": -81.6063953369928}, "transactions": [], "price": "$$$", "location": {"address1": "11401 Bellflower Rd", "address2": "", "address3": "", "city": "Cleveland", "zip_code": "44106", "country": "US", "state": "OH", "display_address": ["11401 Bellflower Rd", "Cleveland, OH 44106"]}, "phone": "+12167917880", "display_phone": "(216) 791-7880", "distance": 6953.412053123396}, {"id": "JezHN-9KKLTMbojq00VP0g", "alias": "le-petit-triangle-caf\u00e9-cleveland-2", "name": "Le Petit Triangle Caf\u00e9", "image_url": "https://s3-media2.fl.yelpcdn.com/bphoto/HhlzCxU92WnJpcP74nB8xg/o.jpg", "is_closed": false, "url": "https://www.yelp.com/biz/le-petit-triangle-caf%C3%A9-cleveland-2?adjust_creative=ziguwByJV8X440VdHu1QZw&utm_campaign=yelp_api_v3&utm_medium=api_v3_business_search&utm_source=ziguwByJV8X440VdHu1QZw", "review_count": 356, "categories": [{"alias": "french", "title": "French"}, {"alias": "breakfast_brunch", "title": "Breakfast & Brunch"}, {"alias": "cafes", "title": "Cafes"}], "rating": 4.0, "coordinates": {"latitude": 41.483153, "longitude": -81.710224}, "transactions": [], "price": "$$", "location": {"address1": "1881 Fulton Rd", "address2": "", "address3": "", "city": "Cleveland", "zip_code": "44113", "country": "US", "state": "OH", "display_address": ["1881 Fulton Rd", "Cleveland, OH 44113"]}, "phone": "+12162811881", "display_phone": "(216) 281-1881", "distance": 3335.4190523555517}, {"id": "p2OvNFiFKnRoWSRON4-lcA", "alias": "bistro-du-beaujolais-olmsted-falls-2", "name": "Bistro Du Beaujolais", "image_url": "https://s3-media3.fl.yelpcdn.com/bphoto/ih_2UzCNY5QMRis7WVbVZA/o.jpg", "is_closed": false, "url": "https://www.yelp.com/biz/bistro-du-beaujolais-olmsted-falls-2?adjust_creative=ziguwByJV8X440VdHu1QZw&utm_campaign=yelp_api_v3&utm_medium=api_v3_business_search&utm_source=ziguwByJV8X440VdHu1QZw", "review_count": 53, "categories": [{"alias": "french", "title": "French"}, {"alias": "wine_bars", "title": "Wine Bars"}], "rating": 4.5, "coordinates": {"latitude": 41.37394, "longitude": -81.90207}, "transactions": [], "price": "$$$", "location": {"address1": "8134 Columbia Rd", "address2": "", "address3": "", "city": "Olmsted Falls", "zip_code": "44138", "country": "US", "state": "OH", "display_address": ["8134 Columbia Rd", "Olmsted Falls, OH 44138"]}, "phone": "+14402358883", "display_phone": "(440) 235-8883", "distance": 22116.72372010007}, {"id": "jA3xcba82t8x06H8NzG4VQ", "alias": "the-black-pig-cleveland-2", "name": "The Black Pig", "image_url": "https://s3-media4.fl.yelpcdn.com/bphoto/fGoMtMPmSGdD_v18ozXIaA/o.jpg", "is_closed": false, "url": "https://www.yelp.com/biz/the-black-pig-cleveland-2?adjust_creative=ziguwByJV8X440VdHu1QZw&utm_campaign=yelp_api_v3&utm_medium=api_v3_business_search&utm_source=ziguwByJV8X440VdHu1QZw", "review_count": 151, "categories": [{"alias": "french", "title": "French"}, {"alias": "newamerican", "title": "American (New)"}, {"alias": "breakfast_brunch", "title": "Breakfast & Brunch"}], "rating": 4.0, "coordinates": {"latitude": 41.4847984313965, "longitude": -81.706657409668}, "transactions": [], "price": "$$", "location": {"address1": "2801 Bridge Ave", "address2": "", "address3": "", "city": "Cleveland", "zip_code": "44113", "country": "US", "state": "OH", "display_address": ["2801 Bridge Ave", "Cleveland, OH 44113"]}, "phone": "+12168627551", "display_phone": "(216) 862-7551", "distance": 3125.099895407353}, {"id": "OkC86YtZ0Nm19my5F4GGrQ", "alias": "tartine-bistro-and-wine-bar-rocky-river", "name": "Tartine Bistro & Wine Bar", "image_url": "https://s3-media3.fl.yelpcdn.com/bphoto/SPRp-q8UriQRak5qI_-vaA/o.jpg", "is_closed": false, "url": "https://www.yelp.com/biz/tartine-bistro-and-wine-bar-rocky-river?adjust_creative=ziguwByJV8X440VdHu1QZw&utm_campaign=yelp_api_v3&utm_medium=api_v3_business_search&utm_source=ziguwByJV8X440VdHu1QZw", "review_count": 127, "categories": [{"alias": "french", "title": "French"}, {"alias": "wine_bars", "title": "Wine Bars"}, {"alias": "mediterranean", "title": "Mediterranean"}], "rating": 4.0, "coordinates": {"latitude": 41.48303, "longitude": -81.83426}, "transactions": ["delivery", "pickup"], "price": "$$", "location": {"address1": "19110 Old Detroit Rd", "address2": "", "address3": "", "city": "Rocky River", "zip_code": "44116", "country": "US", "state": "OH", "display_address": ["19110 Old Detroit Rd", "Rocky River, OH 44116"]}, "phone": "+14403310800", "display_phone": "(440) 331-0800", "distance": 13531.88672313695}, {"id": "udFcIcbWbxrO8uLF95WnQg", "alias": "cowell-and-hubbard-cleveland", "name": "Cowell & Hubbard", "image_url": "https://s3-media4.fl.yelpcdn.com/bphoto/nI6WReTR1iZ0m_RasYVzyQ/o.jpg", "is_closed": false, "url": "https://www.yelp.com/biz/cowell-and-hubbard-cleveland?adjust_creative=ziguwByJV8X440VdHu1QZw&utm_campaign=yelp_api_v3&utm_medium=api_v3_business_search&utm_source=ziguwByJV8X440VdHu1QZw", "review_count": 177, "categories": [{"alias": "french", "title": "French"}, {"alias": "bars", "title": "Bars"}], "rating": 4.0, "coordinates": {"latitude": 41.5009140742561, "longitude": -81.6828721761704}, "transactions": [], "price": "$$$", "location": {"address1": "1305 Euclid Ave", "address2": "", "address3": "", "city": "Cleveland", "zip_code": "44115", "country": "US", "state": "OH", "display_address": ["1305 Euclid Ave", "Cleveland, OH 44115"]}, "phone": "+12164790555", "display_phone": "(216) 479-0555", "distance": 3180.2001005883403}, {"id": "J1RDyyPxhioqm8c_fi4P4Q", "alias": "lola-cleveland", "name": "Lola", "image_url": "https://s3-media3.fl.yelpcdn.com/bphoto/xP1QFeC-Llz3kofnVAurCw/o.jpg", "is_closed": false, "url": "https://www.yelp.com/biz/lola-cleveland?adjust_creative=ziguwByJV8X440VdHu1QZw&utm_campaign=yelp_api_v3&utm_medium=api_v3_business_search&utm_source=ziguwByJV8X440VdHu1QZw", "review_count": 1006, "categories": [{"alias": "wine_bars", "title": "Wine Bars"}, {"alias": "newamerican", "title": "American (New)"}], "rating": 4.0, "coordinates": {"latitude": 41.49883, "longitude": -81.69035}, "transactions": [], "price": "$$$", "location": {"address1": "2058 E 4th St", "address2": "", "address3": "", "city": "Cleveland", "zip_code": "44115", "country": "US", "state": "OH", "display_address": ["2058 E 4th St", "Cleveland, OH 44115"]}, "phone": "+12166215652", "display_phone": "(216) 621-5652", "distance": 3191.079270387402}, {"id": "MX3TL4-ij22rLFBD1XjKGw", "alias": "fahrenheit-cleveland-2", "name": "Fahrenheit", "image_url": "https://s3-media3.fl.yelpcdn.com/bphoto/YvAwwPM53msfPRe9CrxhwA/o.jpg", "is_closed": false, "url": "https://www.yelp.com/biz/fahrenheit-cleveland-2?adjust_creative=ziguwByJV8X440VdHu1QZw&utm_campaign=yelp_api_v3&utm_medium=api_v3_business_search&utm_source=ziguwByJV8X440VdHu1QZw", "review_count": 276, "categories": [{"alias": "newamerican", "title": "American (New)"}, {"alias": "seafood", "title": "Seafood"}, {"alias": "cocktailbars", "title": "Cocktail Bars"}], "rating": 4.0, "coordinates": {"latitude": 41.47974, "longitude": -81.68458}, "transactions": [], "price": "$$$", "location": {"address1": "2417 Professor Ave", "address2": "", "address3": "", "city": "Cleveland", "zip_code": "44113", "country": "US", "state": "OH", "display_address": ["2417 Professor Ave", "Cleveland, OH 44113"]}, "phone": "+12167818858", "display_phone": "(216) 781-8858", "distance": 1231.2158459926795}, {"id": "LtDYRcMJbJPhXPEklT29Fw", "alias": "edwins-leadership-and-restaurant-institute-cleveland-3", "name": "EDWINS Leadership and Restaurant Institute", "image_url": "https://s3-media4.fl.yelpcdn.com/bphoto/07edFJYkMGDVA5TScTuTIQ/o.jpg", "is_closed": false, "url": "https://www.yelp.com/biz/edwins-leadership-and-restaurant-institute-cleveland-3?adjust_creative=ziguwByJV8X440VdHu1QZw&utm_campaign=yelp_api_v3&utm_medium=api_v3_business_search&utm_source=ziguwByJV8X440VdHu1QZw", "review_count": 159, "categories": [{"alias": "french", "title": "French"}, {"alias": "specialtyschools", "title": "Specialty Schools"}], "rating": 4.5, "coordinates": {"latitude": 41.4842350467245, "longitude": -81.5913967754631}, "transactions": [], "price": "$$$", "location": {"address1": "13101 Shaker Sq", "address2": null, "address3": "", "city": "Cleveland", "zip_code": "44120", "country": "US", "state": "OH", "display_address": ["13101 Shaker Sq", "Cleveland, OH 44120"]}, "phone": "+12169213333", "display_phone": "(216) 921-3333", "distance": 6851.485463612565}, {"id": "yCa7CSRK65U_ZtzRB3XtGw", "alias": "cru-uncorked-moreland-hills", "name": "Cru Uncorked", "image_url": "https://s3-media2.fl.yelpcdn.com/bphoto/np2v6Uv7lWAY838W8owF5w/o.jpg", "is_closed": false, "url": "https://www.yelp.com/biz/cru-uncorked-moreland-hills?adjust_creative=ziguwByJV8X440VdHu1QZw&utm_campaign=yelp_api_v3&utm_medium=api_v3_business_search&utm_source=ziguwByJV8X440VdHu1QZw", "review_count": 29, "categories": [{"alias": "french", "title": "French"}, {"alias": "newamerican", "title": "American (New)"}, {"alias": "wine_bars", "title": "Wine Bars"}], "rating": 4.0, "coordinates": {"latitude": 41.45403, "longitude": -81.4429399}, "transactions": [], "price": "$$$$", "location": {"address1": "34300 Chagrin Blvd", "address2": null, "address3": "", "city": "Moreland Hills", "zip_code": "44022", "country": "US", "state": "OH", "display_address": ["34300 Chagrin Blvd", "Moreland Hills, OH 44022"]}, "phone": "+14409031171", "display_phone": "(440) 903-1171", "distance": 19241.765079549074}, {"id": "umYIc-FJg-3tsqoVaM-Mnw", "alias": "earth-bistro-cafe-cleveland", "name": "Earth Bistro Cafe", "image_url": "https://s3-media3.fl.yelpcdn.com/bphoto/pUfpB4t_WlBdJywT-OWcEA/o.jpg", "is_closed": false, "url": "https://www.yelp.com/biz/earth-bistro-cafe-cleveland?adjust_creative=ziguwByJV8X440VdHu1QZw&utm_campaign=yelp_api_v3&utm_medium=api_v3_business_search&utm_source=ziguwByJV8X440VdHu1QZw", "review_count": 139, "categories": [{"alias": "vegan", "title": "Vegan"}, {"alias": "juicebars", "title": "Juice Bars & Smoothies"}, {"alias": "breakfast_brunch", "title": "Breakfast & Brunch"}], "rating": 4.5, "coordinates": {"latitude": 41.4863845, "longitude": -81.7626989}, "transactions": [], "price": "$$", "location": {"address1": "11100 Clifton Ave", "address2": "", "address3": "", "city": "Cleveland", "zip_code": "44102", "country": "US", "state": "OH", "display_address": ["11100 Clifton Ave", "Cleveland, OH 44102"]}, "phone": "+12162019338", "display_phone": "(216) 201-9338", "distance": 7662.343981598926}, {"id": "ZxYPXtZQ-6DFyl4VQkTELQ", "alias": "washington-place-bistro-cleveland", "name": "Washington Place Bistro", "image_url": "https://s3-media3.fl.yelpcdn.com/bphoto/EDFvgUIF0oV1IVm-fss_fA/o.jpg", "is_closed": false, "url": "https://www.yelp.com/biz/washington-place-bistro-cleveland?adjust_creative=ziguwByJV8X440VdHu1QZw&utm_campaign=yelp_api_v3&utm_medium=api_v3_business_search&utm_source=ziguwByJV8X440VdHu1QZw", "review_count": 161, "categories": [{"alias": "newamerican", "title": "American (New)"}], "rating": 4.0, "coordinates": {"latitude": 41.504454, "longitude": -81.600514}, "transactions": [], "price": "$$", "location": {"address1": "2203 Cornell Rd", "address2": "", "address3": "", "city": "Cleveland", "zip_code": "44106", "country": "US", "state": "OH", "display_address": ["2203 Cornell Rd", "Cleveland, OH 44106"]}, "phone": "+12167916500", "display_phone": "(216) 791-6500", "distance": 6908.330335304932}, {"id": "VH2BjFjc9usDquDgoHhptA", "alias": "barrio-cleveland-3", "name": "Barrio", "image_url": "https://s3-media2.fl.yelpcdn.com/bphoto/3bCewumfuTTjHgfyGRE_ag/o.jpg", "is_closed": false, "url": "https://www.yelp.com/biz/barrio-cleveland-3?adjust_creative=ziguwByJV8X440VdHu1QZw&utm_campaign=yelp_api_v3&utm_medium=api_v3_business_search&utm_source=ziguwByJV8X440VdHu1QZw", "review_count": 475, "categories": [{"alias": "mexican", "title": "Mexican"}, {"alias": "desserts", "title": "Desserts"}, {"alias": "breakfast_brunch", "title": "Breakfast & Brunch"}], "rating": 4.0, "coordinates": {"latitude": 41.4984058257344, "longitude": -81.6893222744518}, "transactions": [], "price": "$$", "location": {"address1": "527 Prospect Ave", "address2": "", "address3": null, "city": "Cleveland", "zip_code": "44115", "country": "US", "state": "OH", "display_address": ["527 Prospect Ave", "Cleveland, OH 44115"]}, "phone": "+12168624652", "display_phone": "(216) 862-4652", "distance": 3116.950715223465}, {"id": "LNsZJP6jZ11e0tDljOLPiQ", "alias": "townhall-cleveland-2", "name": "Townhall", "image_url": "https://s3-media4.fl.yelpcdn.com/bphoto/hbfNhiGY8lpVWor4MkANvw/o.jpg", "is_closed": false, "url": "https://www.yelp.com/biz/townhall-cleveland-2?adjust_creative=ziguwByJV8X440VdHu1QZw&utm_campaign=yelp_api_v3&utm_medium=api_v3_business_search&utm_source=ziguwByJV8X440VdHu1QZw", "review_count": 1137, "categories": [{"alias": "newamerican", "title": "American (New)"}, {"alias": "juicebars", "title": "Juice Bars & Smoothies"}, {"alias": "beerbar", "title": "Beer Bar"}], "rating": 4.0, "coordinates": {"latitude": 41.485492, "longitude": -81.703914}, "transactions": ["pickup"], "price": "$$", "location": {"address1": "1909 W 25th St", "address2": "", "address3": "", "city": "Cleveland", "zip_code": "44113", "country": "US", "state": "OH", "display_address": ["1909 W 25th St", "Cleveland, OH 44113"]}, "phone": "+12163449400", "display_phone": "(216) 344-9400", "distance": 2951.385340171334}, {"id": "6MlO4sGzERjA8kq5rySspQ", "alias": "chicagos-home-of-chicken-and-waffles-cleveland", "name": "Chicago's Home of Chicken & Waffles", "image_url": "https://s3-media4.fl.yelpcdn.com/bphoto/BlMVHgK9vpYfVrRZZiDmjA/o.jpg", "is_closed": false, "url": "https://www.yelp.com/biz/chicagos-home-of-chicken-and-waffles-cleveland?adjust_creative=ziguwByJV8X440VdHu1QZw&utm_campaign=yelp_api_v3&utm_medium=api_v3_business_search&utm_source=ziguwByJV8X440VdHu1QZw", "review_count": 169, "categories": [{"alias": "bars", "title": "Bars"}, {"alias": "breakfast_brunch", "title": "Breakfast & Brunch"}, {"alias": "waffles", "title": "Waffles"}], "rating": 3.5, "coordinates": {"latitude": 41.49917, "longitude": -81.68272}, "transactions": ["delivery", "pickup"], "price": "$$", "location": {"address1": "1144 Prospect Ave E", "address2": null, "address3": "", "city": "Cleveland", "zip_code": "44115", "country": "US", "state": "OH", "display_address": ["1144 Prospect Ave E", "Cleveland, OH 44115"]}, "phone": "+12166008600", "display_phone": "(216) 600-8600", "distance": 2990.368415460536}, {"id": "wftmt-n8OUA4Ng3bWWH5dw", "alias": "wonton-gourmet-and-bbq-cleveland", "name": "Wonton Gourmet & BBQ", "image_url": "https://s3-media2.fl.yelpcdn.com/bphoto/djhSelWcFB-wLUzH0ahceQ/o.jpg", "is_closed": false, "url": "https://www.yelp.com/biz/wonton-gourmet-and-bbq-cleveland?adjust_creative=ziguwByJV8X440VdHu1QZw&utm_campaign=yelp_api_v3&utm_medium=api_v3_business_search&utm_source=ziguwByJV8X440VdHu1QZw", "review_count": 249, "categories": [{"alias": "chinese", "title": "Chinese"}, {"alias": "bbq", "title": "Barbeque"}], "rating": 4.5, "coordinates": {"latitude": 41.5088920593262, "longitude": -81.6662826538086}, "transactions": ["pickup", "delivery"], "price": "$$", "location": {"address1": "3211 Payne Ave", "address2": "", "address3": "", "city": "Cleveland", "zip_code": "44114", "country": "US", "state": "OH", "display_address": ["3211 Payne Ave", "Cleveland, OH 44114"]}, "phone": "+12168757000", "display_phone": "(216) 875-7000", "distance": 3978.055546925977}, {"id": "0youcKV6-eE3F2MQj1l6Fw", "alias": "100th-bomb-group-cleveland", "name": "100th Bomb Group", "image_url": "https://s3-media2.fl.yelpcdn.com/bphoto/-RkH4KDNghyCGwlwAXLUDg/o.jpg", "is_closed": false, "url": "https://www.yelp.com/biz/100th-bomb-group-cleveland?adjust_creative=ziguwByJV8X440VdHu1QZw&utm_campaign=yelp_api_v3&utm_medium=api_v3_business_search&utm_source=ziguwByJV8X440VdHu1QZw", "review_count": 152, "categories": [{"alias": "newamerican", "title": "American (New)"}, {"alias": "venues", "title": "Venues & Event Spaces"}, {"alias": "sandwiches", "title": "Sandwiches"}], "rating": 3.0, "coordinates": {"latitude": 41.41912, "longitude": -81.84984}, "transactions": [], "price": "$$", "location": {"address1": "20920 Brookpark Rd", "address2": "", "address3": "", "city": "Cleveland", "zip_code": "44135", "country": "US", "state": "OH", "display_address": ["20920 Brookpark Rd", "Cleveland, OH 44135"]}, "phone": "+12162671010", "display_phone": "(216) 267-1010", "distance": 15779.867023482138}, {"id": "SoCjdgcYyj05tSPWz6MUXg", "alias": "pupuseria-la-bendicion-cleveland", "name": "Pupuseria La Bendicion", "image_url": "https://s3-media1.fl.yelpcdn.com/bphoto/ED5unEKrA683f7vS0j8FUQ/o.jpg", "is_closed": false, "url": "https://www.yelp.com/biz/pupuseria-la-bendicion-cleveland?adjust_creative=ziguwByJV8X440VdHu1QZw&utm_campaign=yelp_api_v3&utm_medium=api_v3_business_search&utm_source=ziguwByJV8X440VdHu1QZw", "review_count": 122, "categories": [{"alias": "salvadoran", "title": "Salvadoran"}, {"alias": "colombian", "title": "Colombian"}], "rating": 4.5, "coordinates": {"latitude": 41.4521747, "longitude": -81.7590704}, "transactions": [], "price": "$", "location": {"address1": "3685 W 105th St", "address2": null, "address3": null, "city": "Cleveland", "zip_code": "44111", "country": "US", "state": "OH", "display_address": ["3685 W 105th St", "Cleveland, OH 44111"]}, "phone": "+12166880338", "display_phone": "(216) 688-0338", "distance": 7591.461180684268}, {"id": "eoJfl5vG7X87QhcKb0nt5Q", "alias": "hofbrauhaus-cleveland-cleveland-12", "name": "Hofbrauhaus Cleveland", "image_url": "https://s3-media1.fl.yelpcdn.com/bphoto/AgBYCEysPnEcOvaqbv0wBg/o.jpg", "is_closed": false, "url": "https://www.yelp.com/biz/hofbrauhaus-cleveland-cleveland-12?adjust_creative=ziguwByJV8X440VdHu1QZw&utm_campaign=yelp_api_v3&utm_medium=api_v3_business_search&utm_source=ziguwByJV8X440VdHu1QZw", "review_count": 326, "categories": [{"alias": "bars", "title": "Bars"}, {"alias": "german", "title": "German"}], "rating": 3.0, "coordinates": {"latitude": 41.5030256, "longitude": -81.6813253}, "transactions": [], "price": "$$", "location": {"address1": "1550 Chester Ave", "address2": "", "address3": "", "city": "Cleveland", "zip_code": "44114", "country": "US", "state": "OH", "display_address": ["1550 Chester Ave", "Cleveland, OH 44114"]}, "phone": "+12166212337", "display_phone": "(216) 621-2337", "distance": 3353.785036524117}, {"id": "GIfZNMP0oIJCje_Xp0Bgrw", "alias": "the-greenhouse-tavern-cleveland-2", "name": "The Greenhouse Tavern", "image_url": "https://s3-media4.fl.yelpcdn.com/bphoto/M4t0AoL3UeUw-wVIUAuNeg/o.jpg", "is_closed": false, "url": "https://www.yelp.com/biz/the-greenhouse-tavern-cleveland-2?adjust_creative=ziguwByJV8X440VdHu1QZw&utm_campaign=yelp_api_v3&utm_medium=api_v3_business_search&utm_source=ziguwByJV8X440VdHu1QZw", "review_count": 1013, "categories": [{"alias": "newamerican", "title": "American (New)"}, {"alias": "gastropubs", "title": "Gastropubs"}, {"alias": "breakfast_brunch", "title": "Breakfast & Brunch"}], "rating": 3.5, "coordinates": {"latitude": 41.499073, "longitude": -81.690422}, "transactions": ["delivery", "pickup"], "price": "$$$", "location": {"address1": "2038 E 4th St", "address2": "", "address3": "", "city": "Cleveland", "zip_code": "44115", "country": "US", "state": "OH", "display_address": ["2038 E 4th St", "Cleveland, OH 44115"]}, "phone": "+12164430511", "display_phone": "(216) 443-0511", "distance": 3225.010950518602}], "total": 1300, "region": {"center": {"longitude": -81.67236328125, "latitude": 41.47341857719741}}}, "tacos+Boston": {"businesses": [{"id": "MUup2lqjjX8JYvYjFCAAeA", "alias": "bartaco-seaport-boston-2", "name": "bartaco Seaport", "image_url": "https://s3-media4.fl.yelpcdn.com/bphoto/EkXvwGKuBcje0dsmQjRnAw/o.jpg", "is_closed": false, "url": "https://www.yelp.com/biz/bartaco-seaport-boston-2?adjust_creative=ziguwByJV8X440VdHu1QZw&utm_campaign=yelp_api_v3&utm_medium=api_v3_business_search&utm_source=ziguwByJV8X440VdHu1QZw", "review_count": 21, "categories": [{"alias": "mexican", "title": "Mexican"}], "rating": 4.5, "coordinates": {"latitude": 42.35096, "longitude": -71.04731}, "transactions": [], "location": {"address1": "25 Thomson Pl", "address2": null, "address3": "", "city": "Boston", "zip_code": "02210", "country": "US", "state": "MA", "display_address": ["25 Thomson Pl", "Boston, MA 02210"]}, "phone": "+16178198226", "display_phone": "(617) 819-8226", "distance": 2003.4686831516112}, {"id": "g2BZOLMwHViRf9hsQfKm_w", "alias": "el-pel\u00f3n-taquer\u00eda-boston-3", "name": "El Pel\u00f3n Taquer\u00eda", "image_url": "https://s3-media4.fl.yelpcdn.com/bphoto/ysWjYgXZJyWFlIQLiJBUEA/o.jpg", "is_closed": false, "url": "https://www.yelp.com/biz/el-pel%C3%B3n-taquer%C3%ADa-boston-3?adjust_creative=ziguwByJV8X440VdHu1QZw&utm_campaign=yelp_api_v3&utm_medium=api_v3_business_search&utm_source=ziguwByJV8X440VdHu1QZw", "review_count": 1045, "categories": [{"alias": "mexican", "title": "Mexican"}], "rating": 4.0, "coordinates": {"latitude": 42.3432217195996, "longitude": -71.0989652411179}, "transactions": ["pickup", "delivery"], "price": "$", "location": {"address1": "92 Peterborough St", "address2": "", "address3": "", "city": "Boston", "zip_code": "02215", "country": "US", "state": "MA", "display_address": ["92 Peterborough St", "Boston, MA 02215"]}, "phone": "+16172629090", "display_phone": "(617) 262-9090", "distance": 2347.8624577378223}, {"id": "xVxjzyMqghCYwVe_dwJzJw", "alias": "loco-taqueria-and-oyster-bar-boston", "name": "Loco Taqueria and Oyster Bar", "image_url": "https://s3-media2.fl.yelpcdn.com/bphoto/EBSjh30TUZ6N-cgenGLwBQ/o.jpg", "is_closed": false, "url": "https://www.yelp.com/biz/loco-taqueria-and-oyster-bar-boston?adjust_creative=ziguwByJV8X440VdHu1QZw&utm_campaign=yelp_api_v3&utm_medium=api_v3_business_search&utm_source=ziguwByJV8X440VdHu1QZw", "review_count": 506, "categories": [{"alias": "cocktailbars", "title": "Cocktail Bars"}, {"alias": "seafood", "title": "Seafood"}, {"alias": "mexican", "title": "Mexican"}], "rating": 4.0, "coordinates": {"latitude": 42.3369670759542, "longitude": -71.0477377406966}, "transactions": [], "price": "$$", "location": {"address1": "412 W Broadway", "address2": "", "address3": "", "city": "Boston", "zip_code": "02127", "country": "US", "state": "MA", "display_address": ["412 W Broadway", "Boston, MA 02127"]}, "phone": "+16179175626", "display_phone": "(617) 917-5626", "distance": 2279.095993596969}, {"id": "iQtGgTuPT7Zb_AHtLxl5sw", "alias": "taqueria-jalisco-boston-2", "name": "Taqueria Jalisco", "image_url": "https://s3-media2.fl.yelpcdn.com/bphoto/zCgdrWHmO4mChX6DBS03JA/o.jpg", "is_closed": false, "url": "https://www.yelp.com/biz/taqueria-jalisco-boston-2?adjust_creative=ziguwByJV8X440VdHu1QZw&utm_campaign=yelp_api_v3&utm_medium=api_v3_business_search&utm_source=ziguwByJV8X440VdHu1QZw", "review_count": 275, "categories": [{"alias": "mexican", "title": "Mexican"}], "rating": 4.5, "coordinates": {"latitude": 42.37872, "longitude": -71.02818}, "transactions": [], "price": "$", "location": {"address1": "291 Bennington St", "address2": "", "address3": "", "city": "Boston", "zip_code": "02128", "country": "US", "state": "MA", "display_address": ["291 Bennington St", "Boston, MA 02128"]}, "phone": "+16175676367", "display_phone": "(617) 567-6367", "distance": 4928.131926670471}, {"id": "u51e3gychuqBYNqe2xG6_w", "alias": "lolita-cocina-and-tequila-bar-back-bay-boston", "name": "Lolita Cocina & Tequila Bar Back Bay", "image_url": "https://s3-media4.fl.yelpcdn.com/bphoto/osi8NJh0GMfvUZld3gFFjA/o.jpg", "is_closed": false, "url": "https://www.yelp.com/biz/lolita-cocina-and-tequila-bar-back-bay-boston?adjust_creative=ziguwByJV8X440VdHu1QZw&utm_campaign=yelp_api_v3&utm_medium=api_v3_business_search&utm_source=ziguwByJV8X440VdHu1QZw", "review_count": 1853, "categories": [{"alias": "mexican", "title": "Mexican"}, {"alias": "lounges", "title": "Lounges"}, {"alias": "cocktailbars", "title": "Cocktail Bars"}], "rating": 4.0, "coordinates": {"latitude": 42.3505860446405, "longitude": -71.077508474716}, "transactions": [], "price": "$$", "location": {"address1": "271 Dartmouth St", "address2": null, "address3": "", "city": "Boston", "zip_code": "02116", "country": "US", "state": "MA", "display_address": ["271 Dartmouth St", "Boston, MA 02116"]}, "phone": "+16173695609", "display_phone": "(617) 369-5609", "distance": 598.5047280006519}, {"id": "HL7Kfo9S3eKgJJAEVQ2rbw", "alias": "burro-bar-south-end-boston-2", "name": "Burro Bar South End", "image_url": "https://s3-media2.fl.yelpcdn.com/bphoto/a17btatATGDnMqwFVBNAqw/o.jpg", "is_closed": false, "url": "https://www.yelp.com/biz/burro-bar-south-end-boston-2?adjust_creative=ziguwByJV8X440VdHu1QZw&utm_campaign=yelp_api_v3&utm_medium=api_v3_business_search&utm_source=ziguwByJV8X440VdHu1QZw", "review_count": 54, "categories": [{"alias": "mexican", "title": "Mexican"}, {"alias": "cocktailbars", "title": "Cocktail Bars"}, {"alias": "latin", "title": "Latin American"}], "rating": 4.0, "coordinates": {"latitude": 42.3415042430555, "longitude": -71.0693362674475}, "transactions": [], "price": "$$", "location": {"address1": "1357 Washington St", "address2": null, "address3": "", "city": "Boston", "zip_code": "02118", "country": "US", "state": "MA", "display_address": ["1357 Washington St", "Boston, MA 02118"]}, "phone": "+16174269300", "display_phone": "(617) 426-9300", "distance": 714.4552786848784}, {"id": "HJKGDdibWWWVA2yt2O2SOA", "alias": "chilacates-mexican-street-food-jamaica-plain", "name": "Chilacates Mexican Street Food", "image_url": "https://s3-media4.fl.yelpcdn.com/bphoto/n-VhSEE33kFWFiAwZiks1w/o.jpg", "is_closed": false, "url": "https://www.yelp.com/biz/chilacates-mexican-street-food-jamaica-plain?adjust_creative=ziguwByJV8X440VdHu1QZw&utm_campaign=yelp_api_v3&utm_medium=api_v3_business_search&utm_source=ziguwByJV8X440VdHu1QZw", "review_count": 404, "categories": [{"alias": "mexican", "title": "Mexican"}], "rating": 4.5, "coordinates": {"latitude": 42.31635, "longitude": -71.10315}, "transactions": [], "price": "$", "location": {"address1": "224 Amory St", "address2": null, "address3": "", "city": "Jamaica Plain", "zip_code": "02130", "country": "US", "state": "MA", "display_address": ["224 Amory St", "Jamaica Plain, MA 02130"]}, "phone": "+16175226000", "display_phone": "(617) 522-6000", "distance": 4373.531986455396}, {"id": "gSkiRGUvY9pKdQ55cjWAuQ", "alias": "tenoch-mexican-boston", "name": "Tenoch Mexican", "image_url": "https://s3-media2.fl.yelpcdn.com/bphoto/ZhPJDVXY-5bJ-WrpJn4d2g/o.jpg", "is_closed": false, "url": "https://www.yelp.com/biz/tenoch-mexican-boston?adjust_creative=ziguwByJV8X440VdHu1QZw&utm_campaign=yelp_api_v3&utm_medium=api_v3_business_search&utm_source=ziguwByJV8X440VdHu1QZw", "review_count": 286, "categories": [{"alias": "mexican", "title": "Mexican"}, {"alias": "foodtrucks", "title": "Food Trucks"}], "rating": 4.0, "coordinates": {"latitude": 42.363278, "longitude": -71.051844}, "transactions": [], "price": "$", "location": {"address1": "3 Lewis St", "address2": "", "address3": "", "city": "Boston", "zip_code": "02110", "country": "US", "state": "MA", "display_address": ["3 Lewis St", "Boston, MA 02110"]}, "phone": "+16172489537", "display_phone": "(617) 248-9537", "distance": 2342.4666046646994}, {"id": "X3ltF7mz6rPCSzRRrZjrPw", "alias": "lone-star-taco-bar-cambridge", "name": "Lone Star Taco Bar", "image_url": "https://s3-media4.fl.yelpcdn.com/bphoto/3Z15ltl828J7qmjqk2cU5w/o.jpg", "is_closed": false, "url": "https://www.yelp.com/biz/lone-star-taco-bar-cambridge?adjust_creative=ziguwByJV8X440VdHu1QZw&utm_campaign=yelp_api_v3&utm_medium=api_v3_business_search&utm_source=ziguwByJV8X440VdHu1QZw", "review_count": 261, "categories": [{"alias": "tacos", "title": "Tacos"}, {"alias": "cocktailbars", "title": "Cocktail Bars"}], "rating": 4.0, "coordinates": {"latitude": 42.37212, "longitude": -71.08687}, "transactions": [], "price": "$$", "location": {"address1": "635 Cambridge St", "address2": "", "address3": "", "city": "Cambridge", "zip_code": "02141", "country": "US", "state": "MA", "display_address": ["635 Cambridge St", "Cambridge, MA 02141"]}, "phone": "+18572856179", "display_phone": "(857) 285-6179", "distance": 2985.863988821384}, {"id": "Zg90qJF9EvASbqEARi3bZA", "alias": "marias-taqueria-boston", "name": "Maria's Taqueria", "image_url": "https://s3-media4.fl.yelpcdn.com/bphoto/09UCDzJR3VzgrxJKl3KWDA/o.jpg", "is_closed": false, "url": "https://www.yelp.com/biz/marias-taqueria-boston?adjust_creative=ziguwByJV8X440VdHu1QZw&utm_campaign=yelp_api_v3&utm_medium=api_v3_business_search&utm_source=ziguwByJV8X440VdHu1QZw", "review_count": 254, "categories": [{"alias": "mexican", "title": "Mexican"}], "rating": 4.0, "coordinates": {"latitude": 42.35139, "longitude": -71.06457}, "transactions": [], "price": "$", "location": {"address1": "226 Tremont St", "address2": "", "address3": "", "city": "Boston", "zip_code": "02116", "country": "US", "state": "MA", "display_address": ["226 Tremont St", "Boston, MA 02116"]}, "phone": "+16173577399", "display_phone": "(617) 357-7399", "distance": 672.641533399208}, {"id": "69-tXtqcihNJbCLmzTtGYA", "alias": "taco-loco-mexican-grill-somerville-2", "name": "Taco Loco Mexican Grill", "image_url": "https://s3-media4.fl.yelpcdn.com/bphoto/5j-Wehnds1rOrCszQ3C1rw/o.jpg", "is_closed": false, "url": "https://www.yelp.com/biz/taco-loco-mexican-grill-somerville-2?adjust_creative=ziguwByJV8X440VdHu1QZw&utm_campaign=yelp_api_v3&utm_medium=api_v3_business_search&utm_source=ziguwByJV8X440VdHu1QZw", "review_count": 434, "categories": [{"alias": "mexican", "title": "Mexican"}], "rating": 4.5, "coordinates": {"latitude": 42.3863690346479, "longitude": -71.0795889794827}, "transactions": ["delivery"], "price": "$", "location": {"address1": "44 Broadway", "address2": null, "address3": "", "city": "Somerville", "zip_code": "02145", "country": "US", "state": "MA", "display_address": ["44 Broadway", "Somerville, MA 02145"]}, "phone": "+16176253830", "display_phone": "(617) 625-3830", "distance": 4331.00511740782}, {"id": "ovthxd_lV4rGyHKQBVePUA", "alias": "naco-taco-on-newbury-boston", "name": "Naco Taco on Newbury", "image_url": "https://s3-media3.fl.yelpcdn.com/bphoto/GaePjXYuQX7LVXfoPf6YaQ/o.jpg", "is_closed": false, "url": "https://www.yelp.com/biz/naco-taco-on-newbury-boston?adjust_creative=ziguwByJV8X440VdHu1QZw&utm_campaign=yelp_api_v3&utm_medium=api_v3_business_search&utm_source=ziguwByJV8X440VdHu1QZw", "review_count": 14, "categories": [{"alias": "tacos", "title": "Tacos"}, {"alias": "foodtrucks", "title": "Food Trucks"}], "rating": 4.0, "coordinates": {"latitude": 42.34808, "longitude": -71.0874}, "transactions": [], "location": {"address1": "354 Newbury St", "address2": null, "address3": "", "city": "Boston", "zip_code": "02115", "country": "US", "state": "MA", "display_address": ["354 Newbury St", "Boston, MA 02115"]}, "phone": "+16179451548", "display_phone": "(617) 945-1548", "distance": 1327.8575159681488}, {"id": "xyoagpWYgFuIKcCE425epA", "alias": "naco-taco-cambridge-6", "name": "Naco Taco", "image_url": "https://s3-media3.fl.yelpcdn.com/bphoto/F_A8Zazr23jNAUAnI9Fa2w/o.jpg", "is_closed": false, "url": "https://www.yelp.com/biz/naco-taco-cambridge-6?adjust_creative=ziguwByJV8X440VdHu1QZw&utm_campaign=yelp_api_v3&utm_medium=api_v3_business_search&utm_source=ziguwByJV8X440VdHu1QZw", "review_count": 380, "categories": [{"alias": "mexican", "title": "Mexican"}, {"alias": "bars", "title": "Bars"}], "rating": 3.5, "coordinates": {"latitude": 42.36234, "longitude": -71.09811}, "transactions": [], "price": "$$", "location": {"address1": "297 Massachusetts Ave", "address2": "", "address3": "", "city": "Cambridge", "zip_code": "02139", "country": "US", "state": "MA", "display_address": ["297 Massachusetts Ave", "Cambridge, MA 02139"]}, "phone": "+16179451548", "display_phone": "(617) 945-1548", "distance": 2732.1038006918466}, {"id": "YgcZLW4jKjHVMkjwoeM2-A", "alias": "cha-cha-cha-taqueria-boston-2", "name": "Cha Cha Cha Taqueria", "image_url": "https://s3-media3.fl.yelpcdn.com/bphoto/oPcoh6RsbZL65mW6EGWIJg/o.jpg", "is_closed": false, "url": "https://www.yelp.com/biz/cha-cha-cha-taqueria-boston-2?adjust_creative=ziguwByJV8X440VdHu1QZw&utm_campaign=yelp_api_v3&utm_medium=api_v3_business_search&utm_source=ziguwByJV8X440VdHu1QZw", "review_count": 67, "categories": [{"alias": "mexican", "title": "Mexican"}], "rating": 4.0, "coordinates": {"latitude": 42.34744, "longitude": -71.07495}, "transactions": ["pickup"], "price": "$", "location": {"address1": "145 Dartmouth St", "address2": "", "address3": "", "city": "Boston", "zip_code": "02116", "country": "US", "state": "MA", "display_address": ["145 Dartmouth St", "Boston, MA 02116"]}, "phone": "+16177853516", "display_phone": "(617) 785-3516", "distance": 337.1675559020857}, {"id": "4rYlrxCQY4dxUzdctfXOuQ", "alias": "dos-diablos-taco-bar-boston", "name": "Dos Diablos Taco Bar", "image_url": "https://s3-media1.fl.yelpcdn.com/bphoto/F6mOyzTWAmKXKY7Im7dQWA/o.jpg", "is_closed": false, "url": "https://www.yelp.com/biz/dos-diablos-taco-bar-boston?adjust_creative=ziguwByJV8X440VdHu1QZw&utm_campaign=yelp_api_v3&utm_medium=api_v3_business_search&utm_source=ziguwByJV8X440VdHu1QZw", "review_count": 9, "categories": [{"alias": "bars", "title": "Bars"}, {"alias": "tacos", "title": "Tacos"}], "rating": 3.0, "coordinates": {"latitude": 42.34165, "longitude": -71.08721}, "transactions": [], "location": {"address1": "50 Gainsborough St", "address2": "", "address3": null, "city": "Boston", "zip_code": "02115", "country": "US", "state": "MA", "display_address": ["50 Gainsborough St", "Boston, MA 02115"]}, "phone": "+16172368784", "display_phone": "(617) 236-8784", "distance": 1482.183634122622}, {"id": "1sehXiCONsgT0PpG08-nvg", "alias": "achilitos-taqueria-boston", "name": "Achilito's Taqueria", "image_url": "https://s3-media3.fl.yelpcdn.com/bphoto/X4n0I61eub3RXImU8sXcEA/o.jpg", "is_closed": false, "url": "https://www.yelp.com/biz/achilitos-taqueria-boston?adjust_creative=ziguwByJV8X440VdHu1QZw&utm_campaign=yelp_api_v3&utm_medium=api_v3_business_search&utm_source=ziguwByJV8X440VdHu1QZw", "review_count": 9, "categories": [{"alias": "mexican", "title": "Mexican"}], "rating": 4.0, "coordinates": {"latitude": 42.29874, "longitude": -71.11405}, "transactions": ["pickup", "delivery"], "location": {"address1": "38 Hyde Park Ave", "address2": null, "address3": "", "city": "Boston", "zip_code": "02130", "country": "US", "state": "MA", "display_address": ["38 Hyde Park Ave", "Boston, MA 02130"]}, "phone": "+16179427901", "display_phone": "(617) 942-7901", "distance": 6492.843831761643}, {"id": "D6wyapYXP4lwLWjf-8_I4g", "alias": "sabroso-taqueria-boston-4", "name": "Sabroso Taqueria", "image_url": "https://s3-media1.fl.yelpcdn.com/bphoto/-BROhX_eDQV7aH7YigmL1g/o.jpg", "is_closed": false, "url": "https://www.yelp.com/biz/sabroso-taqueria-boston-4?adjust_creative=ziguwByJV8X440VdHu1QZw&utm_campaign=yelp_api_v3&utm_medium=api_v3_business_search&utm_source=ziguwByJV8X440VdHu1QZw", "review_count": 92, "categories": [{"alias": "mexican", "title": "Mexican"}], "rating": 4.5, "coordinates": {"latitude": 42.35727, "longitude": -71.05458}, "transactions": [], "price": "$", "location": {"address1": "2 Oliver St", "address2": "", "address3": "", "city": "Boston", "zip_code": "02109", "country": "US", "state": "MA", "display_address": ["2 Oliver St", "Boston, MA 02109"]}, "phone": "+18579911015", "display_phone": "(857) 991-1015", "distance": 1732.632817175158}, {"id": "q-GGOicy0n2r3BF4zO4coA", "alias": "chilacates-mexican-street-food-boston", "name": "Chilacates Mexican Street Food", "image_url": "https://s3-media2.fl.yelpcdn.com/bphoto/0HdhEV1JCJJxruSKVNyoJA/o.jpg", "is_closed": false, "url": "https://www.yelp.com/biz/chilacates-mexican-street-food-boston?adjust_creative=ziguwByJV8X440VdHu1QZw&utm_campaign=yelp_api_v3&utm_medium=api_v3_business_search&utm_source=ziguwByJV8X440VdHu1QZw", "review_count": 91, "categories": [{"alias": "mexican", "title": "Mexican"}], "rating": 4.5, "coordinates": {"latitude": 42.3128114640713, "longitude": -71.1140305548906}, "transactions": [], "price": "$", "location": {"address1": "658 Centre St", "address2": "", "address3": null, "city": "Boston", "zip_code": "02130", "country": "US", "state": "MA", "display_address": ["658 Centre St", "Boston, MA 02130"]}, "phone": "+16175224500", "display_phone": "(617) 522-4500", "distance": 5248.242128644086}, {"id": "CtpSINTejRFvR3j8Ack46g", "alias": "taqueria-el-amigo-waltham", "name": "Taqueria El Amigo", "image_url": "https://s3-media4.fl.yelpcdn.com/bphoto/5r8cdAdLdNc0ez9QueXe8A/o.jpg", "is_closed": false, "url": "https://www.yelp.com/biz/taqueria-el-amigo-waltham?adjust_creative=ziguwByJV8X440VdHu1QZw&utm_campaign=yelp_api_v3&utm_medium=api_v3_business_search&utm_source=ziguwByJV8X440VdHu1QZw", "review_count": 527, "categories": [{"alias": "mexican", "title": "Mexican"}], "rating": 4.5, "coordinates": {"latitude": 42.370405, "longitude": -71.2207102}, "transactions": [], "price": "$", "location": {"address1": "196 Willow St", "address2": "", "address3": "", "city": "Waltham", "zip_code": "02453", "country": "US", "state": "MA", "display_address": ["196 Willow St", "Waltham, MA 02453"]}, "phone": "+17816427410", "display_phone": "(781) 642-7410", "distance": 12531.04301812703}, {"id": "1exJzD7WPZzJ72JRG1CGWg", "alias": "lone-star-taco-bar-allston", "name": "Lone Star Taco Bar", "image_url": "https://s3-media4.fl.yelpcdn.com/bphoto/f8WkPp8iWN2RwY4PQD4T7g/o.jpg", "is_closed": false, "url": "https://www.yelp.com/biz/lone-star-taco-bar-allston?adjust_creative=ziguwByJV8X440VdHu1QZw&utm_campaign=yelp_api_v3&utm_medium=api_v3_business_search&utm_source=ziguwByJV8X440VdHu1QZw", "review_count": 475, "categories": [{"alias": "bars", "title": "Bars"}, {"alias": "tacos", "title": "Tacos"}], "rating": 4.0, "coordinates": {"latitude": 42.353849, "longitude": -71.137078}, "transactions": [], "price": "$$", "location": {"address1": "479 Cambridge St", "address2": "", "address3": "", "city": "Allston", "zip_code": "02134", "country": "US", "state": "MA", "display_address": ["479 Cambridge St", "Allston, MA 02134"]}, "phone": "+16177828226", "display_phone": "(617) 782-8226", "distance": 5451.160576667929}], "total": 1000, "region": {"center": {"longitude": -71.07124328613281, "latitude": 42.34784169448538}}}, "pizza+New York": {"businesses": [{"id": "ysqgdbSrezXgVwER2kQWKA", "alias": "julianas-pizza-brooklyn-5", "name": "Juliana's Pizza", "image_url": "https://s3-media1.fl.yelpcdn.com/bphoto/7JtwTxhWHf3YS70Ss_CfxA/o.jpg", "is_closed": false, "url": "https://www.yelp.com/biz/julianas-pizza-brooklyn-5?adjust_creative=ziguwByJV8X440VdHu1QZw&utm_campaign=yelp_api_v3&utm_medium=api_v3_business_search&utm_source=ziguwByJV8X440VdHu1QZw", "review_count": 1851, "categories": [{"alias": "pizza", "title": "Pizza"}], "rating": 4.5, "coordinates": {"latitude": 40.7026153030093, "longitude": -73.9934159993549}, "transactions": [], "price": "$$", "location": {"address1": "19 Old Fulton St", "address2": "", "address3": "", "city": "Brooklyn", "zip_code": "11201", "country": "US", "state": "NY", "display_address": ["19 Old Fulton St", "Brooklyn, NY 11201"]}, "phone": "+17185966700", "display_phone": "(718) 596-6700", "distance": 323.20506308227306}, {"id": "j7K-Pevawo8PN3r0WyEE_g", "alias": "macoletta-astoria-2", "name": "Macoletta", "image_url": "https://s3-media2.fl.yelpcdn.com/bphoto/d36O3rx5ollsCzqYZ7Y5dA/o.jpg", "is_closed": false, "url": "https://www.yelp.com/biz/macoletta-astoria-2?adjust_creative=ziguwByJV8X440VdHu1QZw&utm_campaign=yelp_api_v3&utm_medium=api_v3_business_search&utm_source=ziguwByJV8X440VdHu1QZw", "review_count": 65, "categories": [{"alias": "pizza", "title": "Pizza"}], "rating": 4.5, "coordinates": {"latitude": 40.7732423, "longitude": -73.9164153}, "transactions": ["delivery", "pickup"], "price": "$$", "location": {"address1": "28-15 24th Ave", "address2": "", "address3": null, "city": "Astoria", "zip_code": "11102", "country": "US", "state": "NY", "display_address": ["28-15 24th Ave", "Astoria, NY 11102"]}, "phone": "+17187774992", "display_phone": "(718) 777-4992", "distance": 9994.1309977644}, {"id": "WIhm0W9197f_rRtDziq5qQ", "alias": "lombardis-pizza-new-york", "name": "Lombardi's Pizza", "image_url": "https://s3-media1.fl.yelpcdn.com/bphoto/XtCyVQ08bShUv8WdK5B-VA/o.jpg", "is_closed": false, "url": "https://www.yelp.com/biz/lombardis-pizza-new-york?adjust_creative=ziguwByJV8X440VdHu1QZw&utm_campaign=yelp_api_v3&utm_medium=api_v3_business_search&utm_source=ziguwByJV8X440VdHu1QZw", "review_count": 5710, "categories": [{"alias": "pizza", "title": "Pizza"}], "rating": 4.0, "coordinates": {"latitude": 40.72164, "longitude": -73.9957}, "transactions": [], "price": "$$", "location": {"address1": "32 Spring St", "address2": "", "address3": "", "city": "New York", "zip_code": "10012", "country": "US", "state": "NY", "display_address": ["32 Spring St", "New York, NY 10012"]}, "phone": "+12129417994", "display_phone": "(212) 941-7994", "distance": 1804.4733931798112}, {"id": "zj8Lq1T8KIC5zwFief15jg", "alias": "prince-street-pizza-new-york-2", "name": "Prince Street Pizza", "image_url": "https://s3-media3.fl.yelpcdn.com/bphoto/ZAukOyv530w4KjOHC5YY1w/o.jpg", "is_closed": false, "url": "https://www.yelp.com/biz/prince-street-pizza-new-york-2?adjust_creative=ziguwByJV8X440VdHu1QZw&utm_campaign=yelp_api_v3&utm_medium=api_v3_business_search&utm_source=ziguwByJV8X440VdHu1QZw", "review_count": 2322, "categories": [{"alias": "pizza", "title": "Pizza"}, {"alias": "italian", "title": "Italian"}], "rating": 4.5, "coordinates": {"latitude": 40.7229087705545, "longitude": -73.9944863319397}, "transactions": ["delivery", "pickup"], "price": "$", "location": {"address1": "27 Prince St", "address2": null, "address3": "", "city": "New York", "zip_code": "10012", "country": "US", "state": "NY", "display_address": ["27 Prince St", "New York, NY 10012"]}, "phone": "+12129664100", "display_phone": "(212) 966-4100", "distance": 1941.9638172538225}, {"id": "AOZlppihRNG8Y2N4Jid30A", "alias": "brooklyn-pizza-masters-new-york", "name": "Brooklyn Pizza Masters", "image_url": "https://s3-media1.fl.yelpcdn.com/bphoto/-ZpoS1hm-dur9EENQRkwdg/o.jpg", "is_closed": false, "url": "https://www.yelp.com/biz/brooklyn-pizza-masters-new-york?adjust_creative=ziguwByJV8X440VdHu1QZw&utm_campaign=yelp_api_v3&utm_medium=api_v3_business_search&utm_source=ziguwByJV8X440VdHu1QZw", "review_count": 60, "categories": [{"alias": "pizza", "title": "Pizza"}, {"alias": "salad", "title": "Salad"}], "rating": 4.5, "coordinates": {"latitude": 40.7588567, "longitude": -73.9626842}, "transactions": ["delivery", "pickup"], "location": {"address1": "1055 1st Ave", "address2": "", "address3": null, "city": "New York", "zip_code": "10022", "country": "US", "state": "NY", "display_address": ["1055 1st Ave", "New York, NY 10022"]}, "phone": "+16466697757", "display_phone": "(646) 669-7757", "distance": 6477.021840005289}, {"id": "IdjSR-GQAxQD0poZ3rSueg", "alias": "800-degrees-woodfired-kitchen-new-york", "name": "800 Degrees Woodfired Kitchen", "image_url": "https://s3-media3.fl.yelpcdn.com/bphoto/rqJoRtbicQfnZ5WtAzO04g/o.jpg", "is_closed": false, "url": "https://www.yelp.com/biz/800-degrees-woodfired-kitchen-new-york?adjust_creative=ziguwByJV8X440VdHu1QZw&utm_campaign=yelp_api_v3&utm_medium=api_v3_business_search&utm_source=ziguwByJV8X440VdHu1QZw", "review_count": 53, "categories": [{"alias": "pizza", "title": "Pizza"}, {"alias": "bars", "title": "Bars"}, {"alias": "newamerican", "title": "American (New)"}], "rating": 4.5, "coordinates": {"latitude": 40.7476518631412, "longitude": -73.9845055883606}, "transactions": ["delivery", "pickup"], "location": {"address1": "1 E 33rd St", "address2": "", "address3": null, "city": "New York", "zip_code": "10016", "country": "US", "state": "NY", "display_address": ["1 E 33rd St", "New York, NY 10016"]}, "phone": "+12126606419", "display_phone": "(212) 660-6419", "distance": 4765.11989350466}, {"id": "d8USIZvTTqee35l34anRBg", "alias": "sauce-pizzeria-new-york-3", "name": "Sauce Pizzeria", "image_url": "https://s3-media3.fl.yelpcdn.com/bphoto/wlNdAraW0GL4aEaQGhYLTg/o.jpg", "is_closed": false, "url": "https://www.yelp.com/biz/sauce-pizzeria-new-york-3?adjust_creative=ziguwByJV8X440VdHu1QZw&utm_campaign=yelp_api_v3&utm_medium=api_v3_business_search&utm_source=ziguwByJV8X440VdHu1QZw", "review_count": 65, "categories": [{"alias": "pizza", "title": "Pizza"}, {"alias": "italian", "title": "Italian"}], "rating": 4.5, "coordinates": {"latitude": 40.73033, "longitude": -73.98403}, "transactions": ["delivery", "pickup"], "location": {"address1": "345 E 12th St", "address2": "", "address3": null, "city": "New York", "zip_code": "10003", "country": "US", "state": "NY", "display_address": ["345 E 12th St", "New York, NY 10003"]}, "phone": "+16469834007", "display_phone": "(646) 983-4007", "distance": 2911.8661493024188}, {"id": "yH6t1JWcwkdWG4CS5KPvow", "alias": "adriennes-pizzabar-new-york", "name": "Adrienne's Pizzabar", "image_url": "https://s3-media4.fl.yelpcdn.com/bphoto/MOG8wpqkeYQxDslq7ospLw/o.jpg", "is_closed": false, "url": "https://www.yelp.com/biz/adriennes-pizzabar-new-york?adjust_creative=ziguwByJV8X440VdHu1QZw&utm_campaign=yelp_api_v3&utm_medium=api_v3_business_search&utm_source=ziguwByJV8X440VdHu1QZw", "review_count": 1480, "categories": [{"alias": "pizza", "title": "Pizza"}, {"alias": "italian", "title": "Italian"}, {"alias": "beerbar", "title": "Beer Bar"}], "rating": 4.0, "coordinates": {"latitude": 40.7043362, "longitude": -74.0101733}, "transactions": ["delivery", "pickup"], "price": "$$", "location": {"address1": "54 Stone St", "address2": null, "address3": "", "city": "New York", "zip_code": "10004", "country": "US", "state": "NY", "display_address": ["54 Stone St", "New York, NY 10004"]}, "phone": "+12122483838", "display_phone": "(212) 248-3838", "distance": 1344.2671600758972}, {"id": "v1DHGRNCH9247WLYoaoA9A", "alias": "l-industrie-pizzeria-brooklyn", "name": "L'industrie Pizzeria", "image_url": "https://s3-media2.fl.yelpcdn.com/bphoto/SRL_RztRRUijgQwt67daGw/o.jpg", "is_closed": false, "url": "https://www.yelp.com/biz/l-industrie-pizzeria-brooklyn?adjust_creative=ziguwByJV8X440VdHu1QZw&utm_campaign=yelp_api_v3&utm_medium=api_v3_business_search&utm_source=ziguwByJV8X440VdHu1QZw", "review_count": 372, "categories": [{"alias": "pizza", "title": "Pizza"}], "rating": 5.0, "coordinates": {"latitude": 40.71162, "longitude": -73.95783}, "transactions": ["delivery", "pickup"], "price": "$", "location": {"address1": "254 S 2nd St", "address2": "", "address3": "", "city": "Brooklyn", "zip_code": "11211", "country": "US", "state": "NY", "display_address": ["254 S 2nd St", "Brooklyn, NY 11211"]}, "phone": "+17185990002", "display_phone": "(718) 599-0002", "distance": 3145.016041338447}, {"id": "DJSLGbSqCJ1W8ma3LFlMuw", "alias": "patzeria-perfect-pizza-new-york", "name": "Patzeria Perfect Pizza", "image_url": "https://s3-media2.fl.yelpcdn.com/bphoto/w62on7rHWF6ZNTVy6M6RuQ/o.jpg", "is_closed": false, "url": "https://www.yelp.com/biz/patzeria-perfect-pizza-new-york?adjust_creative=ziguwByJV8X440VdHu1QZw&utm_campaign=yelp_api_v3&utm_medium=api_v3_business_search&utm_source=ziguwByJV8X440VdHu1QZw", "review_count": 1491, "categories": [{"alias": "pizza", "title": "Pizza"}, {"alias": "diners", "title": "Diners"}], "rating": 4.0, "coordinates": {"latitude": 40.7594653910395, "longitude": -73.9867857052142}, "transactions": ["delivery", "pickup"], "price": "$", "location": {"address1": "231 W 46th St", "address2": null, "address3": "", "city": "New York", "zip_code": "10036", "country": "US", "state": "NY", "display_address": ["231 W 46th St", "New York, NY 10036"]}, "phone": "+12125757646", "display_phone": "(212) 575-7646", "distance": 6040.018561992213}, {"id": "nyPEn4t4dJglcWxoQRp7vA", "alias": "bakers-pizza-new-york-4", "name": "Baker's Pizza", "image_url": "https://s3-media2.fl.yelpcdn.com/bphoto/FoWMq2C4-I03_0oq25baEQ/o.jpg", "is_closed": false, "url": "https://www.yelp.com/biz/bakers-pizza-new-york-4?adjust_creative=ziguwByJV8X440VdHu1QZw&utm_campaign=yelp_api_v3&utm_medium=api_v3_business_search&utm_source=ziguwByJV8X440VdHu1QZw", "review_count": 29, "categories": [{"alias": "pizza", "title": "Pizza"}], "rating": 4.5, "coordinates": {"latitude": 40.76546, "longitude": -73.991}, "transactions": ["delivery", "pickup"], "location": {"address1": "754 10th Ave", "address2": "", "address3": null, "city": "New York", "zip_code": "10019", "country": "US", "state": "NY", "display_address": ["754 10th Ave", "New York, NY 10019"]}, "phone": "+19172620722", "display_phone": "(917) 262-0722", "distance": 6675.566727738821}, {"id": "-9NO2IDCJMyNGZMAQ1-VQw", "alias": "ny-pizza-suprema-new-york", "name": "NY Pizza Suprema", "image_url": "https://s3-media2.fl.yelpcdn.com/bphoto/jgBWpYVctm0JQOzbnKnqDQ/o.jpg", "is_closed": false, "url": "https://www.yelp.com/biz/ny-pizza-suprema-new-york?adjust_creative=ziguwByJV8X440VdHu1QZw&utm_campaign=yelp_api_v3&utm_medium=api_v3_business_search&utm_source=ziguwByJV8X440VdHu1QZw", "review_count": 1644, "categories": [{"alias": "pizza", "title": "Pizza"}], "rating": 4.0, "coordinates": {"latitude": 40.7502059936523, "longitude": -73.9953231811523}, "transactions": ["delivery", "pickup"], "price": "$", "location": {"address1": "413 8th Ave", "address2": "", "address3": "", "city": "New York", "zip_code": "10001", "country": "US", "state": "NY", "display_address": ["413 8th Ave", "New York, NY 10001"]}, "phone": "+12125948939", "display_phone": "(212) 594-8939", "distance": 4977.847939164096}, {"id": "2ggi1luerd3Mf_C82JvCYg", "alias": "grimaldis-brooklyn-4", "name": "Grimaldi's", "image_url": "https://s3-media3.fl.yelpcdn.com/bphoto/-j-vYFV9Yx5dkS1u8-BY1A/o.jpg", "is_closed": false, "url": "https://www.yelp.com/biz/grimaldis-brooklyn-4?adjust_creative=ziguwByJV8X440VdHu1QZw&utm_campaign=yelp_api_v3&utm_medium=api_v3_business_search&utm_source=ziguwByJV8X440VdHu1QZw", "review_count": 4421, "categories": [{"alias": "pizza", "title": "Pizza"}], "rating": 3.5, "coordinates": {"latitude": 40.7025694629739, "longitude": -73.993247611872}, "transactions": [], "price": "$$", "location": {"address1": "1 Front St", "address2": "", "address3": "", "city": "Brooklyn", "zip_code": "11201", "country": "US", "state": "NY", "display_address": ["1 Front St", "Brooklyn, NY 11201"]}, "phone": "+17188584300", "display_phone": "(718) 858-4300", "distance": 331.6559230633367}, {"id": "uc5qQMzs96rzjK27epDCug", "alias": "joes-pizza-new-york-4", "name": "Joe's Pizza", "image_url": "https://s3-media2.fl.yelpcdn.com/bphoto/FhbFkrh_3TrAOZvoWTyOJA/o.jpg", "is_closed": false, "url": "https://www.yelp.com/biz/joes-pizza-new-york-4?adjust_creative=ziguwByJV8X440VdHu1QZw&utm_campaign=yelp_api_v3&utm_medium=api_v3_business_search&utm_source=ziguwByJV8X440VdHu1QZw", "review_count": 2117, "categories": [{"alias": "pizza", "title": "Pizza"}], "rating": 4.0, "coordinates": {"latitude": 40.7305599, "longitude": -74.0021299}, "transactions": [], "price": "$", "location": {"address1": "7 Carmine St", "address2": "", "address3": "", "city": "New York", "zip_code": "10014", "country": "US", "state": "NY", "display_address": ["7 Carmine St", "New York, NY 10014"]}, "phone": "+12123661182", "display_phone": "(212) 366-1182", "distance": 2873.5532231399425}, {"id": "Q9F2ocrmYuGt1yn3M7MOBw", "alias": "lucali-brooklyn-3", "name": "Lucali", "image_url": "https://s3-media2.fl.yelpcdn.com/bphoto/hedx-J8avyAe6npDPphRkA/o.jpg", "is_closed": false, "url": "https://www.yelp.com/biz/lucali-brooklyn-3?adjust_creative=ziguwByJV8X440VdHu1QZw&utm_campaign=yelp_api_v3&utm_medium=api_v3_business_search&utm_source=ziguwByJV8X440VdHu1QZw", "review_count": 1236, "categories": [{"alias": "pizza", "title": "Pizza"}], "rating": 4.5, "coordinates": {"latitude": 40.6818, "longitude": -74.00024}, "transactions": [], "price": "$$", "location": {"address1": "575 Henry St", "address2": null, "address3": "", "city": "Brooklyn", "zip_code": "11231", "country": "US", "state": "NY", "display_address": ["575 Henry St", "Brooklyn, NY 11231"]}, "phone": "+17188584086", "display_phone": "(718) 858-4086", "distance": 2677.3041083372636}, {"id": "oJ_XSPZFpvIt6rvheSQl7A", "alias": "bleecker-street-pizza-new-york", "name": "Bleecker Street Pizza", "image_url": "https://s3-media4.fl.yelpcdn.com/bphoto/Kyi2tP43S_a6s-zXD38NUQ/o.jpg", "is_closed": false, "url": "https://www.yelp.com/biz/bleecker-street-pizza-new-york?adjust_creative=ziguwByJV8X440VdHu1QZw&utm_campaign=yelp_api_v3&utm_medium=api_v3_business_search&utm_source=ziguwByJV8X440VdHu1QZw", "review_count": 1933, "categories": [{"alias": "pizza", "title": "Pizza"}, {"alias": "italian", "title": "Italian"}], "rating": 4.0, "coordinates": {"latitude": 40.7320627016512, "longitude": -74.0036552270137}, "transactions": ["delivery", "pickup"], "price": "$", "location": {"address1": "69 7th Ave S", "address2": null, "address3": "", "city": "New York", "zip_code": "10014", "country": "US", "state": "NY", "display_address": ["69 7th Ave S", "New York, NY 10014"]}, "phone": "+12129244466", "display_phone": "(212) 924-4466", "distance": 3072.9540450669765}, {"id": "GI02HjwIOpKaDZeQkCxM0g", "alias": "mama-rosas-brick-oven-pizzaria-restaurant-jackson-heights", "name": "Mama Rosa's Brick Oven Pizzaria Restaurant", "image_url": "https://s3-media1.fl.yelpcdn.com/bphoto/tTfQKLD9TOeeQv0yo3dPpw/o.jpg", "is_closed": false, "url": "https://www.yelp.com/biz/mama-rosas-brick-oven-pizzaria-restaurant-jackson-heights?adjust_creative=ziguwByJV8X440VdHu1QZw&utm_campaign=yelp_api_v3&utm_medium=api_v3_business_search&utm_source=ziguwByJV8X440VdHu1QZw", "review_count": 34, "categories": [{"alias": "pizza", "title": "Pizza"}], "rating": 4.5, "coordinates": {"latitude": 40.7495109, "longitude": -73.888552}, "transactions": ["delivery", "pickup"], "location": {"address1": "77-09 37th Ave", "address2": "", "address3": null, "city": "Jackson Heights", "zip_code": "11372", "country": "US", "state": "NY", "display_address": ["77-09 37th Ave", "Jackson Heights, NY 11372"]}, "phone": "+13476491862", "display_phone": "(347) 649-1862", "distance": 10168.766875487487}, {"id": "aPn2_EtjfHduXEmEBNxuFA", "alias": "rosas-pizza-brooklyn", "name": "Rosa's Pizza", "image_url": "https://s3-media3.fl.yelpcdn.com/bphoto/ZtmmhjU0WgvuvlC-hOXDvA/o.jpg", "is_closed": false, "url": "https://www.yelp.com/biz/rosas-pizza-brooklyn?adjust_creative=ziguwByJV8X440VdHu1QZw&utm_campaign=yelp_api_v3&utm_medium=api_v3_business_search&utm_source=ziguwByJV8X440VdHu1QZw", "review_count": 15, "categories": [{"alias": "pizza", "title": "Pizza"}], "rating": 5.0, "coordinates": {"latitude": 40.7139499, "longitude": -73.95563}, "transactions": ["delivery", "pickup"], "location": {"address1": "374 Metropolitan Ave", "address2": "", "address3": null, "city": "Brooklyn", "zip_code": "11211", "country": "US", "state": "NY", "display_address": ["374 Metropolitan Ave", "Brooklyn, NY 11211"]}, "phone": "+17189632378", "display_phone": "(718) 963-2378", "distance": 3389.3819670194457}, {"id": "oRdM7n-AfBPBGAlH4Q0Sag", "alias": "my-pie-pizzeria-romana-new-york-2", "name": "My Pie Pizzeria Romana", "image_url": "https://s3-media3.fl.yelpcdn.com/bphoto/vo36uaolTTa5aREAcddJnw/o.jpg", "is_closed": false, "url": "https://www.yelp.com/biz/my-pie-pizzeria-romana-new-york-2?adjust_creative=ziguwByJV8X440VdHu1QZw&utm_campaign=yelp_api_v3&utm_medium=api_v3_business_search&utm_source=ziguwByJV8X440VdHu1QZw", "review_count": 598, "categories": [{"alias": "pizza", "title": "Pizza"}], "rating": 4.5, "coordinates": {"latitude": 40.7608512, "longitude": -73.9694809}, "transactions": ["delivery", "pickup"], "price": "$", "location": {"address1": "690 Lexington Ave", "address2": "", "address3": "", "city": "New York", "zip_code": "10022", "country": "US", "state": "NY", "display_address": ["690 Lexington Ave", "New York, NY 10022"]}, "phone": "+12123171850", "display_phone": "(212) 317-1850", "distance": 6505.9564779774955}, {"id": "DLsqhCGZmEo48zsgduCbpQ", "alias": "lombardis-pizza-new-york-3", "name": "Lombardi's pizza", "image_url": "https://s3-media2.fl.yelpcdn.com/bphoto/HdwDfj-3byRSUZPqb4rTfA/o.jpg", "is_closed": false, "url": "https://www.yelp.com/biz/lombardis-pizza-new-york-3?adjust_creative=ziguwByJV8X440VdHu1QZw&utm_campaign=yelp_api_v3&utm_medium=api_v3_business_search&utm_source=ziguwByJV8X440VdHu1QZw", "review_count": 41, "categories": [{"alias": "pizza", "title": "Pizza"}], "rating": 4.0, "coordinates": {"latitude": 40.74623, "longitude": -73.9974}, "transactions": [], "location": {"address1": "290 8th Ave", "address2": "", "address3": null, "city": "New York", "zip_code": "10001", "country": "US", "state": "NY", "display_address": ["290 8th Ave", "New York, NY 10001"]}, "phone": "+12122561973", "display_phone": "(212) 256-1973", "distance": 4544.250019376753}], "total": 10600, "region": {"center": {"longitude": -73.99429321289062, "latitude": 40.70544486444615}}}}